WWTP_NAME,COUNTRY,POP_SERVED,DESIGN_CAP,LEVEL,LAT_WWTP,LON_WWTP
Akmenes aglomeracija,Lithuania,1060,4600.0,Advanced,56.247,22.726
Alytaus m aglomeracija,Lithuania,87900,220000.0,Advanced,54.432,24.056
Anyksciu aglomeracija,Lithuania,12400,33000.0,Advanced,55.509,25.073
Ariogalos aglomeracija,Lithuania,2500,4357.0,Secondary,55.252,23.484
Baisogalos aglomeracija,Lithuania,1200,1490.0,Secondary,55.644,23.741
Birstono   Prienu aglomeracija,Lithuania,12400,19000.0,Advanced,54.623,24.062
Birzu aglomeracija,Lithuania,14400,17500.0,Advanced,56.17,24.745
Druskininku aglomeracija,Lithuania,16800,26036.0,Advanced,54.048,24.01
Eisiskiu aglomeracija,Lithuania,1500,2250.0,Advanced,54.175,24.988
Elektrenu Vievio aglomeracija,Lithuania,11400,19738.0,Advanced,54.771,24.627
Gelgaudiskio aglomeracija,Lithuania,440,3000.0,Secondary,55.085,22.961
Ignalinos aglomeracija,Lithuania,3600,7000.0,Advanced,55.327,26.166
Jonavos aglomeracija,Lithuania,26100,34000.0,Advanced,55.066,24.254
Joniskio aglomeracija,Lithuania,8100,22800.0,Advanced,56.256,23.629
Juodkrantes aglomeracija,Lithuania,1300,3000.0,Secondary,55.556,21.128
Jurbarko aglomeracija,Lithuania,11400,13500.0,Advanced,55.066,22.754
Kaisiadoriu aglomeracija,Lithuania,17300,20000.0,Advanced,54.872,24.446
Kalvarijos aglomeracija,Lithuania,2620,4900.0,Secondary,54.409,23.225
Kauno m aglomeracija,Lithuania,246500,374500.0,Advanced,54.905,23.851
Kazlu Rudos aglomeracija,Lithuania,2100,8300.0,Advanced,54.753,23.452
Kedainiu aglomeracija,Lithuania,38600,42000.0,Advanced,55.265,23.95
Kelmes aglomeracija,Lithuania,5000,21600.0,Advanced,55.625,22.953
Kybartu aglomeracija,Russia,1230,4200.0,Secondary,54.647,22.753
Klaipedos m aglomeracija,Lithuania,189000,305000.0,Advanced,55.644,21.264
Kretingos aglomeracija,Lithuania,26400,32000.0,Advanced,55.868,21.204
Kudirkos Naumiescio aglomeracija,Lithuania,550,3100.0,Secondary,54.779,22.858
Kupiskio aglomeracija,Lithuania,1450,11200.0,Advanced,55.835,24.941
Kursenu aglomeracija,Lithuania,9000,20100.0,Advanced,55.979,22.909
Lazdiju aglomeracija,Lithuania,3800,6500.0,Advanced,54.238,23.523
Marijampoles m aglomeracija,Lithuania,97000,122000.0,Advanced,54.587,23.356
Mazeikiu aglomeracija,Lithuania,55000,60000.0,Advanced,56.403,22.154
Moletu aglomeracija,Lithuania,3800,8000.0,Advanced,55.222,25.384
Naujosios Akmenes aglomeracija,Lithuania,9500,16000.0,Advanced,56.397,22.935
Nemencines aglomeracija,Lithuania,4500,8000.0,Secondary,54.858,25.441
Nemezio aglomeracija,Lithuania,760,5600.0,Secondary,54.629,25.358
Nidos aglomeracija,Lithuania,2970,6700.0,Secondary,55.322,21.036
Pabrades aglomeracija,Lithuania,1150,4600.0,Advanced,54.966,25.728
Pagegiu aglomeracija,Lithuania,820,2600.0,Advanced,55.132,21.9
Pakruojo aglomeracija,Lithuania,2800,11000.0,Advanced,56.012,23.841
Palangos aglomeracija,Lithuania,19000,22000.0,Advanced,56.06,21.067
Panevezio m aglomeracija,Lithuania,331000,292000.0,Advanced,55.713,24.212
Pasvalio aglomeracija,Lithuania,44500,59000.0,Advanced,56.075,24.429
Plunges aglomeracija,Lithuania,24100,33660.0,Advanced,55.88,21.812
Pravieniskiu aglomeracija,Lithuania,9000,10589.0,Advanced,54.92,24.219
Radviliskio aglomeracija,Lithuania,8800,17000.0,Advanced,55.844,23.548
Raseiniu aglomeracija,Lithuania,9800,31000.0,Advanced,55.374,23.111
Raudondvario aglomeracija,Lithuania,1100,5000.0,Advanced,54.931,23.772
Rietavo aglomeracija,Lithuania,2900,4500.0,Advanced,55.716,21.937
Rokiskio aglomeracija,Lithuania,14600,47700.0,Advanced,55.958,25.552
Ruklos aglomeracija,Lithuania,3100,7400.0,Advanced,55.057,24.383
sakiu aglomeracija,Lithuania,6700,10000.0,Advanced,54.952,23.005
salcininku aglomeracija,Lithuania,9500,8400.0,Advanced,54.295,25.394
seduvos aglomeracija,Lithuania,1250,2730.0,Secondary,55.751,23.773
siauliu m aglomeracija,Lithuania,110000,182000.0,Advanced,56.012,23.281
silales aglomeracija,Lithuania,7280,10000.0,Advanced,55.48,22.159
silutes aglomeracija,Lithuania,46000,59000.0,Advanced,55.339,21.435
sirvintu aglomeracija,Lithuania,3400,14000.0,Advanced,55.053,24.939
Skaidiskiu aglomeracija,Lithuania,1600,8900.0,Secondary,54.611,25.379
Skuodo aglomeracija,Lithuania,3400,10000.0,Advanced,56.277,21.512
svencioneliu aglomeracija,Lithuania,6000,9900.0,Advanced,55.122,25.975
svencioniu aglomeracija,Lithuania,4670,7000.0,Secondary,55.12,26.156
Taurages aglomeracija,Lithuania,27000,38000.0,Advanced,55.22,22.256
Telsiu aglomeracija,Lithuania,58000,137000.0,Advanced,56.008,22.255
Traku Lentvario aglomeracija,Lithuania,11000,19000.0,Advanced,54.664,25.048
Ukmerges aglomeracija,Lithuania,25000,32000.0,Advanced,55.228,24.736
Utenos aglomeracija,Lithuania,95000,125000.0,Advanced,55.521,25.579
Varenos aglomeracija,Lithuania,11000,12000.0,Advanced,54.219,24.554
Veisieju aglomeracija,Lithuania,500,1900.0,Secondary,54.092,23.708
Ventos aglomeracija,Lithuania,1500,5200.0,Advanced,56.194,22.669
Vilkaviskio aglomeracija,Lithuania,6200,16000.0,Advanced,54.659,23.017
Vilkijos aglomeracija,Lithuania,750,3000.0,Secondary,55.045,23.543
Vilniaus m aglomeracija,Lithuania,680000,740000.0,Advanced,54.679,25.161
Visagino m aglomeracija,Lithuania,14000,30000.0,Advanced,55.587,26.554
Zarasu aglomeracija,Lithuania,3400,35333.0,Advanced,55.738,26.289
ziezmariu aglomeracija,Lithuania,3760,4000.0,Secondary,54.802,24.431
Haapsalu  reoveepuhasti,Estonia,10700,22000.0,Advanced,58.945,23.558
Voru linna puhasti,Estonia,11417,15000.0,Advanced,57.86,26.996
Rapla,Estonia,5100,13000.0,Advanced,58.996,24.773
Paide reoveepuhasti,Estonia,19935,40225.0,Advanced,58.869,25.547
Tapa linna reoveepuhasti,Estonia,5242,8300.0,Advanced,59.275,25.954
Rakvere linna reoveepuhasti,Estonia,42482,166670.0,Advanced,59.368,26.346
Valga linna reoveepuhasti,Estonia,11589,15000.0,Advanced,57.797,26.076
Maardu,Estonia,0,12500.0,Secondary,59.475,24.983
Sillamae PS,Estonia,17372,20000.0,Advanced,59.407,27.744
Narva KPS peale I jarje,Estonia,51815,140000.0,Advanced,59.402,28.183
Kehra reoveepuhasti,Estonia,2020,4500.0,Advanced,59.346,25.338
Ahtme,Estonia,0,19000.0,Advanced,59.327,27.445
Parnu Morra reoveepuhastusjaam,Estonia,58300,125000.0,Advanced,58.387,24.452
Kuressaare reoveepuhasti,Estonia,28370,56600.0,Advanced,58.22,22.497
Tallinna reoveepuhastusjaam,Estonia,470612,450000.0,Advanced,59.48,24.669
Kohtla Jarve regionaalne reoveepuhasti,Estonia,172113,223300.0,Advanced,59.467,27.2
Polva linna RVP,Estonia,40468,46250.0,Advanced,58.071,27.07
Viljandi reoveepuhasti Kosti,Estonia,18950,25000.0,Advanced,58.635,25.634
Keila RVP,Estonia,15200,15200.0,Advanced,59.316,24.434
Kunda reoveepuhasti,Estonia,1151,4200.0,Advanced,59.509,26.523
Torva Vanamoisa reoveepuhasti,Estonia,773,309.0,Secondary,58.014,25.937
Torva Riiska,Estonia,601,425.0,Secondary,57.989,25.934
Kohila reoveepuhasti,Estonia,3700,6500.0,Advanced,59.183,24.742
Tamsalu reoveepuhasti,Estonia,620,3066.0,Advanced,59.165,26.04
Kilingi Nomme linna puhasti,Estonia,1162,1167.0,Advanced,58.158,24.947
Vandra alevi reoveepuhasti,Estonia,1210,4333.0,Advanced,58.645,25.023
Otepaa linna reoveepuhasti,Estonia,2200,5800.0,Advanced,58.071,26.486
Jogeva reoveepuhasti,Estonia,3600,8200.0,Advanced,58.737,26.394
Kardla Roosna reoveepuhasti,Estonia,2700,4400.0,Advanced,59.004,22.764
Sonajala,Estonia,0,72.0,Secondary,58.988,22.822
Kadrina,Estonia,1548,4000.0,Advanced,59.342,26.127
Tartu RVP,Estonia,95959,120000.0,Advanced,58.341,26.749
Vaike Maarja reoveepuhasti,Estonia,2960,3220.0,Advanced,59.117,26.211
Paldiski reoveepuhasti,Estonia,4373,6000.0,Advanced,59.342,24.062
Rapina biopuhasti,Estonia,3075,3300.0,Advanced,58.091,27.47
Kose puhasti,Estonia,1080,3000.0,Advanced,59.193,25.164
Marjamaa RA002,Estonia,2721,4070.0,Advanced,58.902,24.406
Turi linna biopuhasti,Estonia,5400,8375.0,Advanced,58.786,25.413
Juri reoveepuhasti,Estonia,2110,4200.0,Advanced,59.368,24.946
Loksa reoveepuhasti,Estonia,2800,4500.0,Advanced,59.59,25.699
Aseri puhasti,Estonia,1700,2330.0,Advanced,59.457,26.877
Elva reoveepuhasti,Estonia,6687,11000.0,Advanced,58.226,26.388
Poltsamaa linna reoveepuhasti,Estonia,22300,25000.0,Advanced,58.642,25.988
Arukula,Estonia,1233,2100.0,Advanced,59.398,25.13
Haljala reoveepuhasti,Estonia,24696,22038.0,Advanced,59.429,26.276
Jarva Jaani puhasti,Estonia,9169,12500.0,Advanced,59.044,25.875
Jarvakandi,Estonia,670,4000.0,Advanced,58.77,24.805
Kurtna Pohi,Estonia,138,315.0,Secondary,59.227,24.706
Kiili,Estonia,0,2000.0,Advanced,59.296,24.839
Koeru reoveepuhasti,Estonia,1096,2100.0,Advanced,58.922,26.06
Luige,Estonia,125,450.0,Secondary,59.326,24.752
Merikula,Estonia,1300,1650.0,Advanced,59.468,24.468
Rummu puhasti,Estonia,1388,13500.0,Secondary,59.237,24.298
Muuga sadam Biopuhasti 3000,Estonia,2000,15000.0,Advanced,59.499,25.022
Keila Joa kool,Estonia,4,300.0,Secondary,59.406,24.304
Merekodu reoveepuhasti,Estonia,29,370.0,Advanced,59.441,24.352
Internaatkooli p_s,Estonia,20,71.0,Advanced,57.794,26.035
Otikula biotiik,Estonia,188,520.0,Advanced,58.07,26.496
Haage reoveepuhasti,Estonia,650,1000.0,Advanced,58.353,26.619
Reola biotiigid,Estonia,1263,1317.0,Secondary,58.299,26.724
Anne biotiigid,Estonia,82,550.0,Secondary,58.364,26.789
Keila Joa reoveepuhasti,Estonia,650,2000.0,Advanced,59.409,24.276
Kasevalja,Estonia,14,120.0,Advanced,59.466,24.395
Saha biotiigid,Estonia,15,320.0,Secondary,59.412,24.944
Horizoni heitveepuhasti,Estonia,0,115000.0,Secondary,59.344,25.34
Karksi Nuia,Estonia,0,3550.0,Secondary,58.114,25.523
Torva,Estonia,2500,4000.0,Advanced,58.014,25.937
Suurupi,Estonia,1100,10000.0,Advanced,59.467,24.349
UWWTP STADSKANAAL,Netherlands,31782,36981.0,Advanced,53.013,6.957
UWWTP TER APEL,Netherlands,17229,19350.0,Advanced,52.88,7.099
UWWTP UITHUIZERMEEDEN,Netherlands,3535,6300.0,Advanced,53.41,6.738
UWWTP UITHUIZEN,Netherlands,4439,6300.0,Advanced,53.399,6.676
UWWTP ULRUM,Netherlands,6094,13500.0,Advanced,53.353,6.343
UWWTP ZUIDHORN,Netherlands,11133,13050.0,Advanced,53.252,6.384
UWWTP HOOGEZAND,Netherlands,39248,39150.0,Advanced,53.172,6.774
UWWTP OUDE PEKELA,Netherlands,11901,14850.0,Advanced,53.117,7.028
UWWTP ONDERDENDAM,Netherlands,11474,15480.0,Advanced,53.328,6.593
UWWTP LEEK,Netherlands,29398,28818.0,Advanced,53.153,6.37
UWWTP WINSUM,Netherlands,11015,15750.0,Advanced,53.335,6.503
UWWTP GAARKEUKEN,Netherlands,13333,12150.0,Advanced,53.249,6.324
UWWTP MARUM,Netherlands,9004,6300.0,Advanced,53.154,6.262
UWWTP GARMERWOLDE,Netherlands,231383,213300.0,Advanced,53.249,6.672
UWWTP FEERWERD,Netherlands,3087,3600.0,Advanced,53.304,6.48
UWWTP HOOGKERK,Netherlands,6135,13500.0,Advanced,53.214,6.512
UWWTP SCHEVEKLAP,Netherlands,3575,8100.0,Advanced,53.264,6.976
UWWTP SCHEEMDA,Netherlands,36046,46200.0,Advanced,53.165,7.009
UWWTP VRIESCHELOO,Netherlands,5907,3330.0,Advanced,53.064,7.129
UWWTP WEHE DEN HOORN,Netherlands,3872,6300.0,Advanced,53.369,6.416
UWWTP DELFZIJL,Netherlands,31810,52200.0,Advanced,53.308,6.953
UWWTP VEENDAM,Netherlands,40721,48167.0,Advanced,53.106,6.902
UWWTP BELLINGWOLDE,Netherlands,4347,6750.0,Advanced,53.131,7.179
UWWTP OOSTERWOLDE AB,Netherlands,31488,29700.0,Advanced,52.991,6.28
UWWTP LEEUWARDEN,Netherlands,138372,153000.0,Advanced,53.196,5.829
UWWTP DRACHTEN,Netherlands,52543,54000.0,Advanced,53.114,6.06
UWWTP BERGUM SUAMEER SUAMEER,Netherlands,20604,40500.0,Advanced,53.186,6.004
UWWTP GORREDIJK,Netherlands,20663,19800.0,Advanced,53.011,6.057
UWWTP WOLVEGA,Netherlands,22854,40500.0,Advanced,52.887,5.989
UWWTP ST ANNAPAROCHIE,Netherlands,9800,9000.0,Advanced,53.275,5.64
UWWTP SNEEK,Netherlands,31534,37800.0,Advanced,53.024,5.643
UWWTP KOOTSTERTILLE,Netherlands,24313,29700.0,Advanced,53.225,6.117
UWWTP AMELAND,Netherlands,8495,17100.0,Advanced,53.444,5.738
UWWTP DAMWOUDE,Netherlands,16479,27000.0,Advanced,53.278,6.032
UWWTP JOURE,Netherlands,26384,42300.0,Advanced,52.983,5.761
UWWTP BOLSWARD,Netherlands,25972,27000.0,Advanced,53.076,5.523
UWWTP SLOTEN,Netherlands,11127,14850.0,Advanced,52.904,5.64
UWWTP AKKRUM,Netherlands,3875,10800.0,Advanced,53.046,5.835
UWWTP TERSCHELLING,Netherlands,10714,17100.0,Advanced,53.369,5.239
UWWTP LEMMER,Netherlands,12257,27000.0,Advanced,52.862,5.702
UWWTP DOKKUM,Netherlands,20976,27000.0,Advanced,53.324,6.021
UWWTP BIRDAARD,Netherlands,16024,19800.0,Advanced,53.299,5.883
UWWTP WORKUM,Netherlands,9283,15300.0,Advanced,52.973,5.452
UWWTP HEERENVEEN NOORD,Netherlands,63473,107100.0,Advanced,52.971,5.895
UWWTP HARLINGEN,Netherlands,32377,70200.0,Advanced,53.173,5.455
UWWTP WIJNJEWOUDE,Netherlands,9937,9000.0,Advanced,53.049,6.199
UWWTP GROUW,Netherlands,15520,16200.0,Advanced,53.093,5.819
UWWTP WARNS,Netherlands,6145,11250.0,Advanced,52.886,5.397
UWWTP FRANEKER,Netherlands,46253,54000.0,Advanced,53.179,5.579
UWWTP VLIELAND,Netherlands,2741,7200.0,Advanced,53.299,5.085
UWWTP SCHIERMONNIKOOG,Netherlands,2337,5850.0,Advanced,53.469,6.193
UWWTP BEILEN,Netherlands,46473,59670.0,Advanced,52.861,6.485
UWWTP ASSEN,Netherlands,74019,85500.0,Advanced,53.002,6.577
UWWTP MEPPEL,Netherlands,60807,82800.0,Advanced,52.711,6.194
UWWTP EMMEN,Netherlands,97967,150300.0,Advanced,52.733,6.883
UWWTP TWEEDE EXLOERMOND,Netherlands,6672,8417.0,Advanced,52.919,6.949
UWWTP SCHOONOORD,Netherlands,2383,3600.0,Advanced,52.843,6.75
UWWTP SMILDE,Netherlands,7413,7200.0,Advanced,52.942,6.454
UWWTP SLEEN,Netherlands,16850,20250.0,Advanced,52.764,6.792
UWWTP EELDE,Netherlands,46710,72000.0,Advanced,53.13,6.604
UWWTP GIETEN,Netherlands,27997,29700.0,Advanced,53.016,6.774
UWWTP DIEVERBRUG,Netherlands,18818,27000.0,Advanced,52.846,6.333
UWWTP ECHTEN DR,Netherlands,146341,90000.0,Advanced,52.711,6.417
UWWTP COEVORDEN,Netherlands,34533,53333.0,Advanced,52.644,6.718
UWWTP GENEMUIDEN,Netherlands,20417,27000.0,Advanced,52.606,6.062
UWWTP OLST_WIJHE OLST,Netherlands,24750,13450.0,Advanced,52.351,6.111
UWWTP OMMEN,Netherlands,18467,16200.0,Advanced,52.528,6.408
UWWTP VOLLENHOVE,Netherlands,4747,10998.0,Advanced,52.673,5.95
UWWTP HEINO,Netherlands,5800,6433.0,Advanced,52.442,6.203
UWWTP DEVENTER,Netherlands,70317,111217.0,Advanced,52.272,6.129
UWWTP STEENWIJK,Netherlands,30947,43200.0,Advanced,52.786,6.101
UWWTP RAALTE,Netherlands,34667,52667.0,Advanced,52.397,6.263
UWWTP HOLTEN,Netherlands,22967,27000.0,Advanced,52.245,6.413
UWWTP KAMPEN,Netherlands,65000,44133.0,Advanced,52.578,5.876
UWWTP HARDENBERG,Netherlands,32050,42084.0,Advanced,52.542,6.61
UWWTP DALFSEN,Netherlands,21100,22167.0,Advanced,52.512,6.238
UWWTP ZWOLLE,Netherlands,126400,108333.0,Advanced,52.509,6.049
UWWTP NOORDOOSTPOLDER TOLLEBEEK,Netherlands,79033,90990.0,Advanced,52.687,5.683
UWWTP DEDEMSVAART,Netherlands,35183,25200.0,Advanced,52.611,6.474
UWWTP HESSENPOORT,Netherlands,9883,16667.0,Advanced,52.531,6.176
UWWTP HAAKSBERGEN,Netherlands,27850,32400.0,Advanced,52.178,6.716
UWWTP ENSCHEDE WEST,Netherlands,179917,247500.0,Advanced,52.235,6.842
UWWTP ENSCHEDE GLANERBRUG,Netherlands,13183,16200.0,Advanced,52.22,6.979
UWWTP VRIEZENVEEN,Netherlands,14600,12600.0,Advanced,52.409,6.633
UWWTP TUBBERGEN,Netherlands,10100,21600.0,Advanced,52.41,6.767
UWWTP DENEKAMP,Netherlands,25367,24300.0,Advanced,52.386,7.035
UWWTP OLDENZAAL,Netherlands,49833,49500.0,Advanced,52.31,6.894
UWWTP VROOMSHOOP,Netherlands,18550,16200.0,Advanced,52.448,6.566
UWWTP LOSSER,Netherlands,19867,45000.0,Advanced,52.261,7.015
UWWTP GOOR,Netherlands,20867,40500.0,Advanced,52.248,6.573
UWWTP HENGELO,Netherlands,95317,176400.0,Advanced,52.28,6.772
UWWTP OOTMARSUM,Netherlands,9233,12600.0,Advanced,52.413,6.931
UWWTP ALMELO VISSEDIJK,Netherlands,39483,81000.0,Advanced,52.367,6.651
UWWTP ALMELO SUMPEL,Netherlands,95167,103500.0,Advanced,52.343,6.625
UWWTP RIJSSEN,Netherlands,37200,45900.0,Advanced,52.32,6.53
UWWTP NIJVERDAL,Netherlands,42700,87300.0,Advanced,52.371,6.473
UWWTP DEN HAM,Netherlands,5583,9900.0,Advanced,52.466,6.479
UWWTP DRONTEN,Netherlands,33183,28665.0,Advanced,52.538,5.718
UWWTP LELYSTAD,Netherlands,67733,123750.0,Advanced,52.504,5.5
UWWTP ALMERE,Netherlands,168450,223740.0,Advanced,52.401,5.247
UWWTP ZEEWOLDE,Netherlands,28367,22500.0,Advanced,52.361,5.508
UWWTP AALTEN,Netherlands,18050,22500.0,Advanced,51.914,6.572
UWWTP WEHL,Netherlands,6950,7650.0,Advanced,51.97,6.211
UWWTP RUURLO,Netherlands,8167,8550.0,Advanced,52.091,6.44
UWWTP LICHTENVOORDE,Netherlands,18700,38700.0,Advanced,51.999,6.563
UWWTP WINTERSWIJK,Netherlands,36517,52200.0,Advanced,51.987,6.707
UWWTP VARSSEVELD,Netherlands,13500,20835.0,Advanced,51.955,6.458
COV Banska Bystrica,Slovakia,43008,190830.0,Advanced,48.67,19.14
UWWTP DINXPERLO,Germany,9917,12600.0,Advanced,51.857,6.472
COV Banska Stiavnica,Slovakia,10347,19300.0,Advanced,48.67,19.14
UWWTP ZUTPHEN,Netherlands,81733,112500.0,Advanced,52.161,6.194
COV Bardejov,Slovakia,14953,36518.0,Advanced,49.29,21.32
UWWTP NIEUWGRAAF,Netherlands,215383,234000.0,Advanced,51.974,6.003
COV Devinska Nova Ves,Slovakia,32970,51314.0,Advanced,48.22,16.97
UWWTP OLBURGEN,Netherlands,88667,81000.0,Advanced,52.048,6.146
COV Petrzalka,Slovakia,106274,486667.0,Secondary,48.1,17.14
UWWTP ETTEN,Netherlands,154117,148500.0,Advanced,51.932,6.322
COV Vrakuna,Slovakia,342393,1092000.0,Secondary,48.15,17.22
UWWTP HAARLO,Netherlands,44900,25200.0,Advanced,52.119,6.594
COV Brezno,Slovakia,11580,50000.0,Advanced,48.81,19.6
UWWTP NIJKERK,Netherlands,62183,46260.0,Advanced,52.233,5.475
COV Brezova pod Bradlom,Slovakia,2927,5230.0,Secondary,48.66,17.53
UWWTP ELBURG,Netherlands,66367,108000.0,Advanced,52.459,5.835
UWWTP HARDERWIJK,Netherlands,152750,137700.0,Advanced,52.359,5.631
COV Bytca,Slovakia,5595,43205.0,Secondary,49.21,18.54
UWWTP HEERDE,Netherlands,16550,19800.0,Advanced,52.392,6.055
COV Kotesova,Slovakia,215,600.0,Primary,49.23,18.6
UWWTP EPE,Netherlands,24850,9000.0,Advanced,52.345,6.0
COV Cadca,Slovakia,35059,63150.0,Advanced,49.43,18.8
UWWTP BENNEKOM,Netherlands,13917,18000.0,Advanced,51.999,5.659
COV Turzovka,Slovakia,4155,18114.0,Advanced,49.41,18.65
UWWTP EDE,Netherlands,151100,171000.0,Advanced,52.041,5.621
COV Caklov,Slovakia,871,4150.0,Advanced,48.91,21.64
UWWTP APELDOORN,Netherlands,163350,198000.0,Advanced,52.24,5.972
COV Cierna nad Tisou,Slovakia,2840,5500.0,Secondary,48.41,22.09
UWWTP BRUMMEN,Netherlands,21283,22500.0,Advanced,52.094,6.186
COV Detva,Slovakia,11268,12426.0,Advanced,48.54,19.39
UWWTP RENKUM,Netherlands,52517,108000.0,Advanced,51.968,5.725
COV Dolny Kubin,Slovakia,18416,23000.0,Advanced,49.21,19.27
UWWTP TERWOLDE,Netherlands,24600,22500.0,Advanced,52.262,6.125
COV Dubnica nad Vahom,Slovakia,16586,48816.0,Secondary,48.96,18.14
UWWTP HATTEM,Netherlands,35283,36000.0,Advanced,52.486,6.041
COV Hamuliakovo,Slovakia,12346,31080.0,Advanced,48.04,17.23
UWWTP GROESBEEK BREDEWEG,Netherlands,13888,18000.0,Advanced,51.76,5.956
COV Kutniky,Slovakia,28877,55000.0,Advanced,47.96,17.67
UWWTP GELDERMALSEN,Netherlands,25561,18900.0,Advanced,51.887,5.276
COV Dvory nad Zitavou,Slovakia,897,1500.0,Secondary,47.99,18.24
UWWTP ASPEREN,Netherlands,4249,6300.0,Advanced,51.883,5.11
COV Filakovo,Slovakia,4645,10333.0,Advanced,48.28,19.82
UWWTP VALBURG,Netherlands,4875,7110.0,Advanced,51.91,5.783
COV Gabcikovo,Slovakia,1723,2000.0,Secondary,47.93,17.58
UWWTP ARNHEM ZUID,Netherlands,129900,148500.0,Advanced,51.968,5.856
UWWTP BERGHAREN,Netherlands,5976,9000.0,Advanced,51.847,5.643
COV Gajary,Slovakia,4433,6500.0,Secondary,48.47,16.88
UWWTP CULEMBORG,Netherlands,32847,33750.0,Advanced,51.961,5.214
COV Galanta,Slovakia,14081,45000.0,Advanced,48.18,17.71
UWWTP OVERASSELT,Netherlands,5571,9000.0,Advanced,51.75,5.8
COV Gbely,Slovakia,1831,7200.0,Advanced,48.73,17.11
UWWTP WEURT_NIJMEGEN,Netherlands,236779,297000.0,Advanced,51.851,5.797
COV Halic,Slovakia,1107,1540.0,Advanced,48.35,19.59
UWWTP TIEL,Netherlands,54018,76500.0,Advanced,51.918,5.434
COV Handlova,Slovakia,11078,16517.0,Advanced,48.75,18.76
UWWTP DODEWAARD,Netherlands,23495,20250.0,Advanced,51.921,5.635
COV Hlinik nad Hronom,Slovakia,3277,4200.0,Advanced,48.54,18.76
UWWTP DRUTEN,Netherlands,22746,31500.0,Advanced,51.894,5.593
UWWTP AALST BRAKEL,Netherlands,8334,7740.0,Advanced,51.798,5.128
COV Hnusta,Slovakia,2740,8140.0,Advanced,48.56,19.96
COV Holic,Slovakia,11564,17413.0,Advanced,48.8,17.15
UWWTP MAASBOMMEL,Netherlands,2293,5004.0,Advanced,51.831,5.523
COV Horka,Slovakia,2114,4162.0,Advanced,49.02,20.37
UWWTP BEESD,Netherlands,5617,6750.0,Advanced,51.898,5.17
UWWTP ZETTEN,Netherlands,3922,5850.0,Advanced,51.936,5.713
COV Hranovnica,Slovakia,963,1000.0,Secondary,49.0,20.31
UWWTP ECK EN WIEL,Netherlands,7715,9900.0,Advanced,51.975,5.455
COV Hrinova,Slovakia,11135,8221.0,Secondary,48.56,19.49
UWWTP GORINCHEM OOST,Netherlands,16046,21600.0,Advanced,51.839,5.009
COV Humenne,Slovakia,33849,96700.0,Advanced,48.92,21.88
UWWTP GENDT_BEMMEL GENDT,Netherlands,16613,31500.0,Advanced,51.874,5.945
COV Hurbanovo,Slovakia,4211,9291.0,Advanced,47.87,18.19
UWWTP DREUMEL,Netherlands,5315,6750.0,Advanced,51.83,5.44
COV Chtelnica,Slovakia,1955,3100.0,Secondary,48.56,17.63
COV Ilava,Slovakia,3076,7000.0,Secondary,49.0,18.22
UWWTP HAAFTEN,Netherlands,10005,11250.0,Advanced,51.824,5.224
COV Jablonica,Slovakia,614,3000.0,Secondary,48.6,17.41
UWWTP BOMMELERWAARD OOST,Netherlands,57751,49500.0,Advanced,51.816,5.267
COV Jelka,Slovakia,1098,4500.0,Secondary,48.13,17.49
UWWTP MILLINGEN,Netherlands,2741,9900.0,Advanced,51.866,6.024
COV Jelsava,Slovakia,684,3083.0,Advanced,48.62,20.24
UWWTP LIENDEN,Netherlands,6608,5850.0,Advanced,51.958,5.533
COV Kezmarok,Slovakia,41882,56000.0,Advanced,49.13,20.42
UWWTP ZEIST,Netherlands,48483,67500.0,Advanced,52.088,5.211
UWWTP DE BILT,Netherlands,55150,61650.0,Advanced,52.119,5.175
COV Klenovec,Slovakia,1673,4350.0,Secondary,48.59,19.91
UWWTP DRIEBERGEN,Netherlands,27000,33300.0,Advanced,52.047,5.261
COV Kokava nad Rimavicou,Slovakia,686,6500.0,Secondary,48.56,19.85
COV Komarno,Slovakia,26467,31950.0,Advanced,47.76,18.14
UWWTP UTRECHT,Netherlands,247883,360000.0,Advanced,52.111,5.107
UWWTP SOEST,Netherlands,70450,90000.0,Advanced,52.196,5.298
UWWTP MAARSSENBROEK,Netherlands,38867,40500.0,Advanced,52.121,5.044
COV Koksov   Baksa,Slovakia,206714,175104.0,Advanced,48.65,21.33
UWWTP DE MEERN,Netherlands,22533,36000.0,Advanced,52.09,5.003
UWWTP WOUDENBERG,Netherlands,29767,32400.0,Advanced,52.09,5.447
COV Kosicka Nova Ves,Slovakia,646,2000.0,Secondary,48.73,21.3
UWWTP VEENENDAAL,Netherlands,70700,109800.0,Advanced,52.039,5.523
UWWTP MONTFOORT,Netherlands,12933,12600.0,Advanced,52.043,4.939
COV Saca,Slovakia,2953,8411.0,Advanced,48.62,21.17
UWWTP BUNNIK,Netherlands,27133,28800.0,Advanced,52.064,5.22
UWWTP AMERSFOORT,Netherlands,172867,189000.0,Advanced,52.174,5.353
UWWTP NIEUWEGEIN,Netherlands,90400,108000.0,Advanced,52.005,5.073
COV Vrbove,Slovakia,5718,6000.0,Secondary,48.6,17.77
UWWTP WIJK BIJ DUURSTEDE,Netherlands,26317,22500.0,Advanced,51.972,5.309
UWWTP MAARSSEN,Netherlands,12300,16200.0,Advanced,52.153,5.04
COV Krasnohorske Podhradie,Slovakia,2278,2500.0,Advanced,48.65,20.59
UWWTP BREUKELEN,Netherlands,20500,23400.0,Advanced,52.165,4.994
UWWTP OUDEWATER,Netherlands,13133,18000.0,Advanced,52.02,4.856
COV Krompachy,Slovakia,4114,12500.0,Secondary,48.92,20.9
UWWTP DE RONDE VENEN MIJDRECHT,Netherlands,32717,40500.0,Advanced,52.213,4.884
UWWTP RHENEN,Netherlands,32933,31500.0,Advanced,51.974,5.532
COV Krupina,Slovakia,451,1260.0,Secondary,48.34,19.07
UWWTP HOUTEN,Netherlands,43000,54000.0,Advanced,52.029,5.131
UWWTP LOENEN AD VECHT,Netherlands,7250,9000.0,Advanced,52.225,5.007
UWWTP LOPIK,Netherlands,16683,15300.0,Advanced,51.971,4.96
COV Ladce,Slovakia,131,700.0,Secondary,49.04,18.28
UWWTP HILVERSUM OOST,Netherlands,57150,65790.0,Advanced,52.226,5.202
UWWTP AMSTELVEEN,Netherlands,113900,75420.0,Advanced,52.314,4.89
COV Lednicke Rovne,Slovakia,2097,7344.0,Secondary,49.07,18.29
UWWTP UITHOORN,Netherlands,31550,41400.0,Advanced,52.24,4.833
UWWTP BLARICUM GOOIERGRACHT,Netherlands,25083,27000.0,Advanced,52.265,5.247
COV Lehota pod Vtacnikom,Slovakia,1602,3330.0,Secondary,48.7,18.59
UWWTP WEESP,Netherlands,35467,40500.0,Advanced,52.326,5.019
UWWTP HUIZEN,Netherlands,48267,43020.0,Advanced,52.31,5.242
COV Leopoldov,Slovakia,5189,10000.0,Advanced,48.43,17.79
UWWTP HORSTERMEER,Netherlands,101283,102240.0,Advanced,52.262,5.083
UWWTP AMSTERDAM WEST,Netherlands,760217,733320.0,Advanced,52.4,4.787
COV Gena,Slovakia,55037,75000.0,Advanced,48.18,18.6
UWWTP HEILOO,Netherlands,40300,68750.0,Advanced,52.596,4.722
UWWTP ALKMAAR,Netherlands,53950,126000.0,Advanced,52.643,4.742
COV Levoca,Slovakia,9446,16000.0,Advanced,49.01,20.58
UWWTP ZAANDAM OOST,Netherlands,91917,106290.0,Advanced,52.431,4.861
UWWTP EVERSTEKOOG,Netherlands,20700,22950.0,Advanced,53.078,4.776
COV Liptovska Teplicka,Slovakia,140,900.0,Secondary,48.98,20.1
UWWTP GEESTMERAMBACHT,Netherlands,163700,154080.0,Advanced,52.696,4.738
UWWTP BEEMSTER ZO BEEMSTER,Netherlands,97617,86670.0,Advanced,52.52,4.916
COV Lozorno,Slovakia,4581,2500.0,Advanced,48.34,17.03
UWWTP KATWOUDE,Netherlands,59967,54666.0,Advanced,52.484,5.031
UWWTP WIERINGEN,Netherlands,7983,10980.0,Advanced,52.929,5.032
COV Lucenec,Slovakia,19748,64690.0,Advanced,48.32,19.68
UWWTP DE STOLPEN,Netherlands,34200,39717.0,Advanced,52.809,4.737
UWWTP WERVERSHOOF,Netherlands,200783,170730.0,Advanced,52.734,5.136
UWWTP BEVERWIJK,Netherlands,158533,212310.0,Advanced,52.476,4.668
UWWTP DEN HELDER,Netherlands,61317,81000.0,Advanced,52.932,4.791
COV Liptovska Tepla,Slovakia,1198,1260.0,Secondary,49.1,19.4
UWWTP URSEM,Netherlands,30433,40248.0,Advanced,52.636,4.887
UWWTP WIERINGERMEER,Netherlands,10683,11700.0,Advanced,52.836,5.023
COV Lucky   Mockov,Slovakia,1697,3393.0,Secondary,49.13,19.41
UWWTP OOSTHUIZEN,Netherlands,5283,6345.0,Advanced,52.581,4.995
UWWTP VELSEN,Netherlands,75283,85500.0,Secondary,52.46,4.66
COV Malacky,Slovakia,15797,33300.0,Advanced,48.44,17.0
UWWTP HEEMSTEDE,Netherlands,20767,31500.0,Advanced,52.345,4.638
UWWTP ZWANENBURG,Netherlands,100917,162000.0,Advanced,52.363,4.74
UWWTP HAARLEM WAARDERPOLDER,Netherlands,161250,144000.0,Advanced,52.399,4.668
COV Vrutky,Slovakia,43289,211700.0,Advanced,49.12,18.92
UWWTP RIJSENHOUT,Netherlands,8917,22500.0,Advanced,52.273,4.725
UWWTP HAARLEM SCHALKWIJK,Netherlands,51617,72000.0,Advanced,52.37,4.669
UWWTP NOORDWIJK,Netherlands,48617,99000.0,Advanced,52.222,4.447
COV Medzev,Slovakia,950,5000.0,Advanced,48.69,20.92
UWWTP AARDAM WEST,Netherlands,2517,4320.0,Advanced,52.165,4.708
UWWTP LEIMUIDEN,Netherlands,7000,6750.0,Advanced,52.221,4.654
UWWTP WOUBRUGGE,Netherlands,3800,3825.0,Advanced,52.17,4.627
COV Medzilaborce,Slovakia,2806,11794.0,Advanced,49.25,21.91
UWWTP LEIDEN ZUIDWEST,Netherlands,79067,81000.0,Advanced,52.138,4.474
UWWTP LISSE,Netherlands,22267,31500.0,Advanced,52.247,4.564
COV Michalovce,Slovakia,44071,86400.0,Advanced,48.73,21.92
UWWTP ALPHEN AD RIJN ALPHEN NOORD,Netherlands,37467,49500.0,Advanced,52.139,4.675
UWWTP RIJNSATERWOUDE,Netherlands,833,1620.0,Advanced,52.191,4.666
COV Modra,Slovakia,5854,25000.0,Advanced,48.32,17.32
UWWTP LANGERAAR,Netherlands,2150,2700.0,Advanced,52.199,4.705
UWWTP NIEUWVEEN,Netherlands,23233,28800.0,Advanced,52.189,4.759
COV Moldava nad Bodvou,Slovakia,5419,13281.0,Secondary,48.6,20.99
UWWTP GOUDA,Netherlands,61717,90000.0,Advanced,52.003,4.713
UWWTP HAZERSWOUDE DORP,Netherlands,4617,6750.0,Advanced,52.102,4.601
COV Myjava,Slovakia,8524,15000.0,Advanced,48.75,17.52
UWWTP KATWIJK,Netherlands,101400,144000.0,Advanced,52.203,4.44
COV Namestovo,Slovakia,13585,46000.0,Advanced,49.41,19.49
UWWTP BODEGRAVEN,Netherlands,46500,54000.0,Advanced,52.083,4.735
UWWTP HOOGMADE,Netherlands,3550,1440.0,Advanced,52.173,4.577
UWWTP ZWAANSHOEK,Netherlands,83833,144000.0,Advanced,52.305,4.607
COV Nemsova,Slovakia,5080,7799.0,Secondary,48.96,18.11
UWWTP AALSMEER,Netherlands,24850,22500.0,Advanced,52.269,4.777
UWWTP LEIDEN NOORD,Netherlands,77383,99000.0,Advanced,52.176,4.496
COV Nesvady,Slovakia,1089,1000.0,Secondary,47.92,18.11
UWWTP NIEUWE WETERING,Netherlands,19417,22500.0,Advanced,52.214,4.611
UWWTP WADDINXVEEN RANDENBURG,Netherlands,41213,41670.0,Advanced,52.058,4.666
COV Nitra,Slovakia,135228,162000.0,Advanced,48.27,18.11
UWWTP ALPHEN KERK and ZANEN,Netherlands,30617,67500.0,Advanced,52.129,4.627
UWWTP WOERDEN,Netherlands,41817,56970.0,Advanced,52.087,4.855
COV Nizna,Slovakia,19420,26000.0,Secondary,49.31,19.5
UWWTP LEIDSCHE RIJN,Netherlands,50333,63000.0,Advanced,52.114,5.039
COV Nova Bana,Slovakia,5724,8600.0,Secondary,48.4,18.63
UWWTP NIEUWE WATERWEG HOEK V HOLLAND,Netherlands,49235,65835.0,Advanced,51.967,4.153
UWWTP HOUTRUST  S GRAVENHAGE,Netherlands,268976,274500.0,Advanced,52.089,4.267
UWWTP GROOTE LUCHT VLAARDINGEN,Netherlands,135286,176700.0,Advanced,51.901,4.301
COV Nove Zamky,Slovakia,42715,55000.0,Advanced,47.98,18.13
UWWTP HARNASCHPOLDER,Netherlands,720980,765000.0,Advanced,52.017,4.319
UWWTP NWKERK AD IJSSEL KORTENOORD,Netherlands,70980,90000.0,Advanced,51.973,4.631
UWWTP CAP AD IJSSEL KRALINGSEVEER,Netherlands,220259,324000.0,Advanced,51.91,4.542
COV Oravska Lesna,Slovakia,566,3000.0,Secondary,49.37,19.19
UWWTP CAP AD IJSSEL GROENEDIJK,Netherlands,40274,63000.0,Advanced,51.93,4.602
UWWTP BERGAMBACHT,Netherlands,5884,6300.0,Advanced,51.942,4.788
COV Partizanske,Slovakia,34892,25000.0,Advanced,48.62,18.34
UWWTP AMMERSTOL,Netherlands,1370,2070.0,Advanced,51.931,4.806
COV Pavlovce nad Uhom,Slovakia,5604,23312.0,Advanced,48.62,22.04
UWWTP STOLWIJK,Netherlands,4968,6570.0,Advanced,51.981,4.767
UWWTP RIDDERKERK,Netherlands,50117,72000.0,Advanced,51.874,4.621
COV Piestany,Slovakia,29798,70300.0,Advanced,48.56,17.82
UWWTP PAPENDRECHT,Netherlands,27903,36000.0,Advanced,51.827,4.703
UWWTP NIEUW LEKKERLAND,Netherlands,7431,10620.0,Advanced,51.888,4.658
COV Plavecky Stvrtok,Slovakia,604,2500.0,Secondary,48.37,16.98
UWWTP ALBLASSERDAM,Netherlands,20450,22500.0,Advanced,51.851,4.673
UWWTP HARDINXVELD DE PEULEN,Netherlands,9311,14400.0,Advanced,51.823,4.839
COV Podolinec,Slovakia,1648,1950.0,Secondary,49.27,20.55
UWWTP VIANEN,Netherlands,22282,36000.0,Advanced,52.0,5.098
COV Poltar,Slovakia,3112,10000.0,Secondary,48.43,19.78
UWWTP OOSTVOORNE,Netherlands,13667,33750.0,Advanced,51.918,4.117
COV Poprad Matejovce,Slovakia,96029,143206.0,Advanced,49.05,20.29
UWWTP HELLEVOETSLUIS,Netherlands,52417,75000.0,Advanced,51.844,4.176
COV Povazska Bystrica,Slovakia,21740,45000.0,Advanced,49.13,18.42
UWWTP STRIJEN,Netherlands,10383,10800.0,Advanced,51.746,4.562
COV Prakovce,Slovakia,2870,3233.0,Secondary,48.82,20.91
UWWTP DORDRECHT,Netherlands,131067,187500.0,Advanced,51.813,4.691
COV Kendice,Slovakia,81618,113788.0,Advanced,48.95,21.24
UWWTP OUD BEIJERLAND,Netherlands,49167,41666.0,Advanced,51.829,4.43
UWWTP GOEDEREEDE,Netherlands,16733,29166.0,Advanced,51.825,3.996
UWWTP SLIEDRECHT,Netherlands,32138,36000.0,Advanced,51.831,4.8
COV Prievidza,Slovakia,47895,139000.0,Advanced,48.76,18.59
UWWTP DE GROOTE ZAAG KRIMPEN A_D LEK,Netherlands,41271,49500.0,Advanced,51.898,4.597
COV Dohnany,Slovakia,235,200.0,Secondary,49.15,18.28
UWWTP PIERSHIL,Netherlands,4700,4950.0,Advanced,51.799,4.347
UWWTP MIDDELHARNIS,Netherlands,26417,33333.0,Advanced,51.77,4.179
COV Puchov   Strezenice,Slovakia,13639,75000.0,Secondary,49.1,18.31
COV Rajec,Slovakia,7692,15117.0,Advanced,49.1,18.64
UWWTP OUDE TONGE,Netherlands,9500,11700.0,Advanced,51.685,4.18
COV Revuca,Slovakia,9201,22170.0,Advanced,48.67,20.13
UWWTP ROZENBURG,Netherlands,10550,16200.0,Advanced,51.919,4.228
UWWTP ROTTERDAM DOKHAVEN,Netherlands,336683,423000.0,Advanced,51.894,4.517
COV Rimavska Sobota,Slovakia,43006,117800.0,Advanced,48.37,20.03
UWWTP HEENVLIET,Netherlands,7733,8184.0,Advanced,51.869,4.249
COV Roznava,Slovakia,11422,17000.0,Advanced,48.64,20.51
UWWTP LEERDAM,Netherlands,35171,20700.0,Advanced,51.892,5.088
COV Ruzomberok,Slovakia,421522,623774.0,Secondary,49.1,19.24
UWWTP GELKENES,Netherlands,22646,31500.0,Advanced,51.936,4.858
COV Sabinov,Slovakia,19242,64800.0,Advanced,49.08,21.1
UWWTP NUMANSDORP,Netherlands,13967,17100.0,Advanced,51.721,4.432
COV Sahy,Slovakia,4619,12300.0,Advanced,48.07,18.94
UWWTP HAASTRECHT,Netherlands,3822,5760.0,Advanced,52.004,4.785
COV Sala,Slovakia,15692,30000.0,Advanced,48.15,17.9
UWWTP BERKENWOUDE,Netherlands,3736,2340.0,Advanced,51.937,4.713
UWWTP HOOGVLIET,Netherlands,54233,62500.0,Advanced,51.875,4.334
COV Sala Veca,Slovakia,9107,15000.0,Advanced,48.15,17.9
UWWTP DEN BOMMEL,Netherlands,2267,2677.0,Advanced,51.725,4.266
COV Samorin,Slovakia,15247,15000.0,Advanced,48.01,17.32
UWWTP OOLTGENSPLAAT,Netherlands,2600,2493.0,Advanced,51.673,4.358
COV Secovce,Slovakia,2234,11405.0,Advanced,48.7,21.68
UWWTP SCHELLUINEN,Netherlands,36225,68400.0,Advanced,51.845,4.936
COV Senec,Slovakia,13915,13250.0,Advanced,48.2,17.42
UWWTP SPIJKENISSE ALLEMANSPOLDER,Netherlands,73600,70834.0,Advanced,51.843,4.364
COV Skalica,Slovakia,10146,22000.0,Advanced,48.85,17.21
UWWTP ZWIJNDRECHT,Netherlands,100033,158337.0,Advanced,51.815,4.587
COV Snina,Slovakia,13830,30096.0,Advanced,48.98,22.13
UWWTP BARENDRECHT,Netherlands,36683,35417.0,Advanced,51.835,4.52
COV Sobrance,Slovakia,4450,8640.0,Advanced,48.73,22.17
UWWTP WESTERSCHOUWEN,Netherlands,19199,59400.0,Advanced,51.691,3.763
COV Sol,Slovakia,2523,3700.0,Advanced,48.92,21.63
UWWTP MASTGAT,Netherlands,7474,19800.0,Advanced,51.634,4.063
COV Spisska Bela,Slovakia,2608,8000.0,Secondary,49.19,20.47
UWWTP DE VERSEPUT KERKWERVE,Netherlands,19140,25560.0,Advanced,51.679,3.874
COV Spisska Nova Ves,Slovakia,24853,82518.0,Advanced,48.92,20.58
COV Spisska Stara Ves,Slovakia,1381,2380.0,Secondary,49.38,20.36
UWWTP ST MAARTENSDIJK SCHERPENISSE,Netherlands,14513,30150.0,Advanced,51.556,4.077
UWWTP THOLEN,Netherlands,8853,14670.0,Advanced,51.542,4.231
COV Stakcin,Slovakia,1170,1500.0,Advanced,48.99,22.21
UWWTP WAARDE,Netherlands,28423,63810.0,Advanced,51.429,4.054
COV Stara Lubovna,Slovakia,11804,24917.0,Advanced,49.31,20.7
UWWTP CAMPERLAND POLDER,Netherlands,8476,27540.0,Advanced,51.571,3.705
COV Surany,Slovakia,5353,5000.0,Advanced,48.08,18.19
UWWTP WILLEM ANNAPOLDER,Netherlands,66227,72810.0,Advanced,51.45,3.934
COV Svaty Jur,Slovakia,3747,8000.0,Secondary,48.25,17.22
UWWTP WALCHEREN,Netherlands,105645,146700.0,Advanced,51.447,3.618
COV Svidnik,Slovakia,6512,13500.0,Advanced,49.29,21.58
UWWTP GROEDE,Netherlands,3178,7920.0,Advanced,51.396,3.505
COV Tisovec,Slovakia,2286,4330.0,Advanced,48.67,19.94
UWWTP RETRANCHEMENT,Netherlands,8673,40500.0,Advanced,51.365,3.38
COV Trebisov,Slovakia,8412,30960.0,Advanced,48.61,21.73
UWWTP OOSTBURG,Netherlands,7539,11250.0,Advanced,51.34,3.5
COV Trencianska Tepla,Slovakia,8697,36651.0,Secondary,48.93,18.1
UWWTP BRESKENS,Netherlands,8774,17100.0,Advanced,51.386,3.586
COV Trencianske Stankovce,Slovakia,3874,3100.0,Advanced,48.84,17.95
COV Trencin lavobrezna,Slovakia,61539,150000.0,Secondary,48.88,18.01
COV Trencin pravobrezna,Slovakia,12866,28330.0,Advanced,48.88,17.98
UWWTP TERNEUZEN,Netherlands,45093,69750.0,Advanced,51.297,3.839
COV Zelenec,Slovakia,158853,211700.0,Advanced,48.32,17.61
UWWTP HULST,Netherlands,14728,29700.0,Advanced,51.28,4.076
COV Turcianske Teplice,Slovakia,5586,24315.0,Secondary,48.89,18.85
UWWTP KLOOSTERZANDE,Netherlands,4267,7200.0,Advanced,51.377,4.024
COV Turna nad Bodvou,Slovakia,632,3715.0,Advanced,48.59,20.87
UWWTP RIJEN,Netherlands,60933,94500.0,Advanced,51.604,4.921
COV Velka Maca,Slovakia,267,200.0,Secondary,48.25,17.7
UWWTP WAALWIJK,Netherlands,47617,58500.0,Advanced,51.713,5.072
COV Velky Krtis,Slovakia,8878,22745.0,Advanced,48.18,19.35
UWWTP OSSENDRECHT,Netherlands,8400,8748.0,Advanced,51.392,4.323
COV Vranov Lomnica,Slovakia,18422,34850.0,Advanced,48.87,21.68
UWWTP PUTTE,Netherlands,3333,5580.0,Advanced,51.366,4.388
COV Podbanske,Slovakia,1478,1387.0,Secondary,49.13,19.89
UWWTP RIEL,Netherlands,6950,3600.0,Advanced,51.535,4.996
COV Strbske Pleso,Slovakia,2148,8500.0,Secondary,49.12,20.07
UWWTP WASPIK,Netherlands,6667,12960.0,Advanced,51.706,4.943
COV Tatranska Kotlina,Slovakia,672,421.0,Secondary,49.23,20.33
UWWTP NIEUW VOSSEMEER,Netherlands,1800,2160.0,Advanced,51.575,4.22
COV Tatranska Kotlina BTH1,Slovakia,14,35.0,Secondary,49.23,20.33
UWWTP NIEUWVEER BREDA,Netherlands,207600,360000.0,Advanced,51.63,4.709
COV Tatranska Lomnica,Slovakia,2107,6965.0,Secondary,49.16,20.28
UWWTP CHAAM,Netherlands,6150,5625.0,Advanced,51.513,4.853
COV Zeliezovce,Slovakia,1594,8000.0,Secondary,48.04,18.66
UWWTP KAATSHEUVEL,Netherlands,44350,56880.0,Advanced,51.657,4.997
COV Ziar nad Hronom,Slovakia,11381,58483.0,Advanced,48.56,18.82
UWWTP BATH,Netherlands,307450,364500.0,Advanced,51.413,4.238
COV Zilina,Slovakia,117841,220000.0,Advanced,49.24,18.63
UWWTP DONGEMOND OOSTERHOUT,Netherlands,101150,97200.0,Advanced,51.676,4.853
COV Zlate Klasy,Slovakia,4261,4000.0,Advanced,48.14,17.43
UWWTP HALSTEREN,Netherlands,10133,9540.0,Advanced,51.529,4.256
COV Zvolen,Slovakia,55088,80500.0,Advanced,48.56,19.1
UWWTP BAARLE NASSAU,Netherlands,16283,12600.0,Advanced,51.45,4.9
COV Banovce nad Bebravou,Slovakia,33362,27814.0,Advanced,48.72,18.24
UWWTP HOOGE ZWALUWE,Netherlands,4950,5400.0,Advanced,51.718,4.712
COV Belusa,Slovakia,1088,2000.0,Secondary,49.06,18.33
UWWTP DINTELOORD,Netherlands,6233,8100.0,Advanced,51.653,4.362
COV Cana,Slovakia,5614,4500.0,Advanced,48.6,21.34
UWWTP WILLEMSTAD,Netherlands,3733,4140.0,Advanced,51.69,4.456
COV Sered   Dolna Streda,Slovakia,18663,12000.0,Secondary,48.26,17.77
UWWTP AALBURG WIJK EN AALBURG,Netherlands,8203,9900.0,Advanced,51.755,5.123
UWWTP EETHEN,Netherlands,4513,5850.0,Advanced,51.725,5.056
UWWTP SLEEUWIJK,Netherlands,28727,48600.0,Advanced,51.816,4.931
UWWTP DUSSEN,Netherlands,6565,7200.0,Advanced,51.733,4.927
COV Hlohovec,Slovakia,25995,27500.0,Advanced,48.41,17.77
COV Kolarovo,Slovakia,0,0.0,Secondary,47.91,18.02
UWWTP EINDHOVEN,Netherlands,556200,443700.0,Advanced,51.46,5.503
COV Komjatice,Slovakia,1431,7000.0,Secondary,48.15,18.16
UWWTP BOXTEL,Netherlands,73133,62280.0,Advanced,51.61,5.328
UWWTP HAPERT,Netherlands,33867,40500.0,Advanced,51.379,5.241
COV Kralovsky Chlmec,Slovakia,3885,7000.0,Secondary,48.4,21.97
UWWTP SOERENDONK,Netherlands,26933,32400.0,Advanced,51.313,5.593
COV Krasno nad Kysucou,Slovakia,3928,8670.0,Advanced,49.38,18.84
UWWTP  S HERTOGENBOSCH,Netherlands,229874,248200.0,Advanced,51.722,5.282
COV Horna Ves Kremnica,Slovakia,827,5000.0,Secondary,48.66,18.91
UWWTP OISTERWIJK,Netherlands,36283,45000.0,Advanced,51.588,5.225
UWWTP ST OEDENRODE,Netherlands,58567,67500.0,Advanced,51.562,5.445
COV Kysucke Nove Mesto,Slovakia,14240,27400.0,Advanced,49.29,18.78
UWWTP HILVARENBEEK,Netherlands,39983,67500.0,Advanced,51.502,5.173
COV Kysucky Lieskovec,Slovakia,1062,2800.0,Secondary,49.33,18.8
UWWTP ASTEN,Netherlands,49815,54450.0,Advanced,51.393,5.744
UWWTP AARLE RIXTEL,Netherlands,219733,324000.0,Advanced,51.507,5.663
COV Lipany,Slovakia,4946,9957.0,Advanced,49.15,20.97
UWWTP DINTHER,Netherlands,231688,203400.0,Advanced,51.638,5.529
COV NCHZ Novaky,Slovakia,0,44600.0,Secondary,48.7,18.52
UWWTP VINKEL,Netherlands,40774,42165.0,Advanced,51.701,5.451
COV Nove Mesto nad Vahom,Slovakia,16281,50670.0,Secondary,48.74,17.84
UWWTP OIJEN,Netherlands,167894,270000.0,Advanced,51.813,5.488
COV Senica,Slovakia,21346,40000.0,Advanced,48.67,17.33
UWWTP LAND VAN CUIJK HAPS,Netherlands,105893,118800.0,Advanced,51.696,5.894
COV Stara Tura,Slovakia,7711,10150.0,Secondary,48.77,17.7
UWWTP MAASTRICHT LIMMEL,Netherlands,91490,99990.0,Advanced,50.872,5.706
COV Stropkov,Slovakia,4918,10000.0,Advanced,49.18,21.65
UWWTP WEERT,Netherlands,121256,90000.0,Advanced,51.267,5.736
COV Stupava,Slovakia,7368,18000.0,Advanced,48.26,17.01
COV Topolcany,Slovakia,37249,32000.0,Advanced,48.53,18.18
UWWTP MAASTRICHT BOSSCHERVELD,Netherlands,63828,90000.0,Advanced,50.866,5.683
COV Vlcany   Neded,Slovakia,3646,9000.0,Advanced,48.01,17.97
UWWTP SIMPELVELD,Netherlands,9312,15300.0,Secondary,50.833,5.97
COV Vrable,Slovakia,9099,9000.0,Advanced,48.23,18.3
UWWTP HEERLEN,Netherlands,16432,59040.0,Secondary,50.889,5.956
COV Zarnovica,Slovakia,3556,29215.0,Secondary,48.47,18.72
UWWTP RIMBURG,Germany,33869,67500.0,Advanced,50.92,6.092
COV Zlate Moravce,Slovakia,18198,11000.0,Advanced,48.36,18.38
UWWTP KAFFEBERG KERKRADE,Netherlands,54127,67500.0,Advanced,50.884,6.05
COV Vulkan Bosany,Slovakia,1172,32000.0,Secondary,48.58,18.23
UWWTP HOENSBROEK,Netherlands,128648,216000.0,Advanced,50.914,5.914
COV Branc,Slovakia,1148,2500.0,Secondary,48.22,18.15
UWWTP HEUGEM GRONSVELD,Netherlands,32363,55800.0,Advanced,50.817,5.715
COV Bystre,Slovakia,4812,10266.0,Advanced,49.02,21.55
UWWTP VENLO,Netherlands,199851,251640.0,Advanced,51.382,6.156
COV Cachtice,Slovakia,1128,4300.0,Advanced,48.71,17.81
UWWTP MEIJEL,Netherlands,5928,10800.0,Advanced,51.35,5.87
COV Cierny Balog,Slovakia,920,2200.0,Secondary,48.76,19.62
UWWTP WIJLRE,Netherlands,44739,43200.0,Advanced,50.827,5.896
UWWTP VENRAIJ,Netherlands,47080,49230.0,Advanced,51.552,5.989
UWWTP STEIN,Netherlands,23638,27000.0,Advanced,50.975,5.752
COV Giraltovce,Slovakia,1775,3330.0,Advanced,49.1,21.52
UWWTP SUSTEREN,Netherlands,179090,189585.0,Advanced,51.064,5.833
COV Habovka,Slovakia,1365,2660.0,Secondary,49.28,19.6
UWWTP PANHEEL,Netherlands,27506,22500.0,Secondary,51.173,5.88
COV Horne Saliby,Slovakia,1793,3100.0,Secondary,48.07,17.81
UWWTP ROERMOND,Netherlands,175659,135630.0,Advanced,51.221,5.989
COV Hrabusice,Slovakia,1842,2000.0,Advanced,48.97,20.4
UWWTP GENNEP,Netherlands,31278,52200.0,Advanced,51.706,5.964
COV Stiavnik   Hvozdnica,Slovakia,0,1602.0,Secondary,49.2,18.49
UWWTP WESTPOORT,Netherlands,241467,361800.0,Advanced,52.414,4.801
COV Jarovnice,Slovakia,712,2100.0,Advanced,49.06,21.07
UWWTP TILBURG NOORD,Netherlands,326750,400500.0,Advanced,51.603,5.073
COV Kuty,Slovakia,888,3500.0,Secondary,48.64,17.02
UWWTP FOXHOL,Netherlands,29159,44550.0,Advanced,53.167,6.71
COV Lendak,Slovakia,4093,3000.0,Advanced,49.23,20.37
UWWTP SIDDEBUREN,Netherlands,0,3915.0,Advanced,53.25,6.889
COV Luky,Slovakia,1110,1875.0,Secondary,49.19,18.24
UWWTP DE WILP,Netherlands,0,1350.0,Advanced,53.12,6.259
COV Marcelova,Slovakia,1572,2000.0,Secondary,47.78,18.27
UWWTP BOURTANGE,Netherlands,0,1215.0,Advanced,53.012,7.192
COV Markusovce,Slovakia,676,780.0,Secondary,48.91,20.63
UWWTP FINSTERWOLDE,Netherlands,0,5400.0,Advanced,53.184,7.083
COV Kechnec   Milhost,Slovakia,5032,7200.0,Secondary,48.53,21.27
UWWTP SLOCHTEREN,Netherlands,0,4500.0,Advanced,53.224,6.791
COV Mojmirovce,Slovakia,1778,2670.0,Secondary,48.2,18.07
UWWTP VLAGTWEDDE,Netherlands,0,3600.0,Advanced,53.042,7.1
COV Moravsky Svaty Jan,Slovakia,2523,4500.0,Secondary,48.57,16.99
UWWTP HAREN,Netherlands,0,3600.0,Advanced,53.181,6.628
UWWTP SELLINGEN,Netherlands,0,2700.0,Advanced,52.947,7.161
COV Nemecka,Slovakia,446,750.0,Advanced,48.8,19.4
UWWTP HEERENVEEN OOST,Netherlands,0,27000.0,Advanced,52.964,5.938
COV Okoc,Slovakia,107,3000.0,Advanced,47.91,17.81
UWWTP HAULERWIJK AB,Netherlands,0,10350.0,Advanced,53.067,6.32
UWWTP KLIJNDIJK,Netherlands,0,5400.0,Advanced,52.83,6.845
COV Oslany,Slovakia,0,0.0,Secondary,48.63,18.46
UWWTP ZUIDLAREN,Netherlands,0,17100.0,Advanced,53.098,6.699
COV Pata,Slovakia,727,900.0,Secondary,48.27,17.83
COV Podbrezova,Slovakia,2221,3244.0,Secondary,48.8,19.55
UWWTP RUINEN,Netherlands,0,5400.0,Advanced,52.76,6.348
UWWTP OOSTERHESSELEN,Netherlands,0,7200.0,Advanced,52.752,6.731
COV Pohorela,Slovakia,400,2400.0,Secondary,48.85,20.01
UWWTP WESTERBORK,Netherlands,0,10800.0,Advanced,52.864,6.6
COV Polomka,Slovakia,2680,4000.0,Secondary,48.85,19.85
UWWTP DALEN,Netherlands,0,9900.0,Advanced,52.644,6.718
COV Poproc,Slovakia,787,1300.0,Secondary,48.7,20.97
UWWTP GRAMSBERGEN,Netherlands,0,4500.0,Advanced,52.607,6.671
COV Hrusovany,Slovakia,533,1166.0,Advanced,48.43,18.09
COV Pribeta,Slovakia,169,660.0,Secondary,47.91,18.3
UWWTP DEDEMSVAART OUD,Netherlands,0,36900.0,Advanced,52.606,6.476
COV Rohoznik,Slovakia,2443,1603.0,Secondary,48.46,17.17
UWWTP WEERSELO,Netherlands,0,4050.0,Advanced,52.358,6.85
UWWTP WESTERHAAR,Netherlands,0,5400.0,Advanced,52.455,6.617
COV Rudnany,Slovakia,693,5000.0,Primary,48.89,20.68
COV Sastin,Slovakia,1102,7200.0,Secondary,48.64,17.14
UWWTP DELDEN,Netherlands,0,9900.0,Advanced,52.26,6.73
COV Bana Cigel,Slovakia,479,1393.0,Secondary,48.74,18.64
UWWTP ROSSUM,Netherlands,0,3600.0,Advanced,52.358,6.919
COV Senkvice,Slovakia,3187,4000.0,Advanced,48.3,17.35
UWWTP BOEKELO,Netherlands,0,3150.0,Advanced,52.21,6.792
COV Sladkovicovo,Slovakia,1747,3300.0,Secondary,48.19,17.66
UWWTP ENSCHEDE ZUID,Netherlands,0,54000.0,Advanced,52.187,6.853
UWWTP ENTER,Netherlands,0,7200.0,Advanced,52.301,6.584
COV Soporna,Slovakia,2160,2000.0,Secondary,48.25,17.81
UWWTP HENGEVELDE,Netherlands,0,2700.0,Advanced,52.205,6.646
UWWTP NEEDE,Netherlands,0,18000.0,Advanced,52.131,6.603
UWWTP BORCULO,Netherlands,0,13500.0,Advanced,52.119,6.515
COV Strazske,Slovakia,2164,2500.0,Advanced,48.85,21.86
COV Tlmace,Slovakia,2769,4000.0,Primary,48.27,18.53
UWWTP ECHTELD,Netherlands,0,540.0,Advanced,51.913,5.502
UWWTP NIEUWAAL,Netherlands,0,540.0,Advanced,51.808,5.18
UWWTP VARIK,Netherlands,0,2250.0,Advanced,51.83,5.372
COV Trstice,Slovakia,2002,4000.0,Secondary,48.01,17.81
UWWTP ALEM,Netherlands,0,450.0,Advanced,51.783,5.357
COV Dolna Marikova,Slovakia,510,750.0,Secondary,49.15,18.4
UWWTP NIEUWER TER AA,Netherlands,0,720.0,Advanced,52.195,4.981
COV Udica I,Slovakia,74,140.0,Secondary,49.16,18.4
UWWTP BUNSCHOTEN,Netherlands,0,27000.0,Advanced,52.251,5.394
COV Udica II,Slovakia,7,50.0,Primary,49.16,18.39
UWWTP BEVERWIJK EO,Netherlands,0,67500.0,Advanced,52.476,4.668
COV Valaska,Slovakia,2207,2700.0,Secondary,48.8,19.56
UWWTP OUDESCHILD,Netherlands,0,5400.0,Advanced,53.035,4.824
COV Velke Ulany,Slovakia,2589,5200.0,Secondary,48.17,17.61
COV Velky Meder,Slovakia,5985,12500.0,Advanced,47.85,17.79
UWWTP DE COCKSDORP,Netherlands,0,5850.0,Advanced,53.161,4.876
UWWTP OOSTEREND,Netherlands,0,2025.0,Advanced,53.081,4.88
COV Vesele,Slovakia,1139,1440.0,Advanced,48.54,17.73
UWWTP  T HORNTJE,Netherlands,0,630.0,Advanced,53.008,4.786
COV Zborov,Slovakia,1800,3000.0,Secondary,49.36,21.29
COV Zohor,Slovakia,2779,3500.0,Advanced,48.32,16.97
UWWTP NIEDORPEN,Netherlands,0,12177.0,Advanced,52.74,4.886
COV Liptovsky Mikulas,Slovakia,231300,126400.0,Advanced,49.09,19.59
UWWTP BADHOEVEDORP,Netherlands,0,5400.0,Advanced,52.335,4.786
UWWTP HOOFDDORP,Netherlands,0,21600.0,Advanced,52.315,4.706
COV Brodske,Slovakia,1577,2000.0,Advanced,48.69,17.0
UWWTP VIJFHUIZEN,Netherlands,0,1350.0,Advanced,52.35,4.683
COV Cinobana,Slovakia,830,2321.0,Advanced,48.44,19.66
UWWTP ZANDVOORT,Netherlands,0,27000.0,Advanced,52.377,4.552
COV Dolne Vestenice,Slovakia,706,2500.0,Secondary,48.7,18.39
COV Dolny Stal,Slovakia,720,1000.0,Secondary,47.93,17.71
UWWTP CRUQUIUS,Netherlands,0,810.0,Advanced,52.336,4.654
COV Hodrusa   Hamre,Slovakia,1143,1000.0,Advanced,48.46,18.75
UWWTP WADDINXVEEN,Netherlands,0,15750.0,Advanced,52.051,4.651
COV Huncovce,Slovakia,518,750.0,Secondary,49.12,20.37
UWWTP REEUWIJK BRUG,Netherlands,0,7200.0,Advanced,52.052,4.721
COV Chynorany,Slovakia,1248,1250.0,Advanced,48.61,18.27
UWWTP BOSKOOP,Netherlands,0,5400.0,Advanced,52.066,4.657
COV Jaslovske Bohunice,Slovakia,3188,5550.0,Advanced,48.47,17.66
UWWTP AARDAM OOST,Netherlands,0,540.0,Advanced,52.163,4.712
COV Kamenica nad Cirochou,Slovakia,1395,1800.0,Advanced,48.94,22.0
UWWTP STOMPWIJK,Netherlands,0,1980.0,Advanced,52.093,4.473
COV Kopcany,Slovakia,409,1750.0,Secondary,48.78,17.09
UWWTP NOORDWIJKERHOUT,Netherlands,0,18000.0,Advanced,52.257,4.513
COV Kovarce,Slovakia,999,1600.0,Advanced,48.5,18.16
UWWTP RODENRIJS,Netherlands,0,1800.0,Advanced,51.983,4.469
COV Liesek,Slovakia,697,2666.0,Advanced,49.36,19.66
UWWTP BERKEL,Netherlands,0,16020.0,Advanced,51.988,4.475
COV Nalepkovo,Slovakia,1928,2200.0,Secondary,48.84,20.64
UWWTP MEERKERK,Netherlands,0,4410.0,Advanced,51.918,4.989
COV Ocova,Slovakia,368,400.0,Secondary,48.59,19.28
UWWTP SCHOONREWOERD,Netherlands,0,1530.0,Advanced,51.924,5.113
UWWTP VIERPOLDERS,Netherlands,0,1350.0,Advanced,51.877,4.186
COV Slavosovce,Slovakia,1680,2000.0,Secondary,48.71,20.27
UWWTP ABBENBROEK,Netherlands,0,1125.0,Advanced,51.849,4.248
COV IMUNA Sarisske Michalany,Slovakia,1491,5010.0,Secondary,49.06,21.15
UWWTP OUDENHOORN,Netherlands,0,990.0,Advanced,51.826,4.188
COV Solcany,Slovakia,1548,2982.0,Secondary,48.54,18.18
UWWTP GOUDSWAARD,Netherlands,0,1710.0,Advanced,51.785,4.269
COV Spisske Bystre,Slovakia,176,2300.0,Advanced,49.0,20.25
UWWTP GOEDEREEDE HAVENHOOFD,Netherlands,0,1080.0,Advanced,51.822,4.005
COV Spissky Stvrtok,Slovakia,1548,2600.0,Secondary,49.0,20.46
COV Duslo Sala as,Slovakia,0,0.0,Secondary,48.13,17.92
COV Velke Kostolany,Slovakia,930,1133.0,Secondary,48.51,17.74
UWWTP HERKINGEN,Netherlands,0,1080.0,Advanced,51.712,4.092
COV Velke Uherce,Slovakia,4042,500.0,Secondary,48.62,18.43
COV Elektrosvit Vrakun,Slovakia,0,0.0,Secondary,47.93,17.62
UWWTP MELISSANT,Netherlands,0,2160.0,Advanced,51.767,4.062
COV Zaskov,Slovakia,27,325.0,Secondary,49.19,19.2
COV Zvolenska Slatina,Slovakia,1720,1500.0,Secondary,48.56,19.26
UWWTP DIRKSLAND,Netherlands,0,3690.0,Advanced,51.758,4.104
COV Bela nad Cirochou,Slovakia,2404,3533.0,Advanced,48.98,22.1
UWWTP ZUIDLAND,Netherlands,0,5400.0,Advanced,51.807,4.267
COV Belusa   Belusske Slatiny,Slovakia,120,375.0,Secondary,49.05,18.33
COV Hradok,Slovakia,1707,2082.0,Advanced,48.69,17.87
UWWTP LEERBROEK,Netherlands,0,2250.0,Advanced,51.915,5.058
COV Liptovska Osada,Slovakia,1562,3686.0,Secondary,48.96,19.27
UWWTP DREISCHOR,Netherlands,0,900.0,Advanced,51.694,3.99
COV Markusovce   Jarecek,Slovakia,294,500.0,Secondary,48.92,20.63
COV Nova Bana   Tajch,Slovakia,11,200.0,Secondary,48.45,18.64
UWWTP BROUWERSHAVEN,Netherlands,0,5850.0,Advanced,51.733,3.888
COV Ocova   Pila,Slovakia,58,100.0,Secondary,48.61,19.31
COV Oslany   Druzstevna,Slovakia,109,200.0,Advanced,48.63,18.47
UWWTP POORTVLIET,Netherlands,0,1980.0,Advanced,51.548,4.143
COV Oslany   Pekarenska,Slovakia,80,100.0,Advanced,48.63,18.46
COV Oslany   Skolska,Slovakia,55,75.0,Advanced,48.63,18.46
UWWTP ST PHILIPSLAND,Netherlands,0,2340.0,Advanced,51.615,4.144
COV Cerenany,Slovakia,29,100.0,Advanced,48.64,18.48
COV Kos,Slovakia,112,250.0,Advanced,48.74,18.58
UWWTP ST MAARTENSDIJK ST ANNALAND,Netherlands,0,6300.0,Advanced,51.556,4.075
COV Udica   Centrum,Slovakia,300,300.0,Secondary,49.16,18.4
COV Zamutov,Slovakia,309,934.0,Advanced,48.9,21.58
UWWTP KORTGENE,Netherlands,0,3600.0,Advanced,51.557,3.805
COV Hatalov,Slovakia,826,4021.0,Advanced,48.62,21.95
UWWTP COLIJNSPLAAT,Netherlands,0,2340.0,Advanced,51.597,3.847
UWWTP ALPHEN NB,Netherlands,0,3600.0,Advanced,51.486,4.97
COV Kecerovce,Slovakia,1548,2600.0,Secondary,48.83,21.42
UWWTP SCHIJNDEL,Netherlands,0,23400.0,Advanced,51.629,5.441
COV Hubice,Slovakia,4343,5000.0,Secondary,48.14,17.43
UWWTP DE RIPS,Netherlands,0,720.0,Advanced,51.565,5.816
COV Velke Zaluzie,Slovakia,0,4300.0,Secondary,48.31,17.96
UWWTP AMSTERDAM ZUID,Netherlands,0,180000.0,Advanced,52.341,4.918
COV Podbrezova   Skalica,Slovakia,1393,1800.0,Secondary,48.8,19.55
UWWTP AMSTERDAM OOST,Netherlands,0,675000.0,Advanced,52.373,4.969
COV Sturovo,Slovakia,0,31700.0,Advanced,47.81,18.73
UWWTP WESTPOORT HUISHOUDENS,Netherlands,0,351000.0,Advanced,52.414,4.803
COV Rojkov,Slovakia,171,4103.0,Secondary,49.12,19.2
UWWTP TILBURG OOST,Netherlands,0,135000.0,Advanced,51.558,5.117
COV Brezno   podkorenova,Slovakia,269,1000.0,Advanced,48.8,19.67
COV Zavadka nad Hronom,Slovakia,1916,2500.0,Advanced,48.85,19.91
COV SLZ Hnusta,Slovakia,1670,3600.0,Secondary,48.56,19.96
COV Velka Lomnica   romska osada,Slovakia,342,900.0,Advanced,49.11,20.35
COV Cabaj   Capor,Slovakia,2086,2550.0,Secondary,48.24,18.03
COV Helpa,Slovakia,1940,3000.0,Advanced,48.86,19.97
COV Raslavice,Slovakia,1453,2250.0,Advanced,49.14,21.32
COV Secovska Polianka,Slovakia,350,2700.0,Advanced,48.78,21.7
COV Vazec,Slovakia,1115,2411.0,Advanced,49.06,19.97
COV Hybe,Slovakia,859,2300.0,Advanced,49.04,19.82
COV Tekovske Luzany,Slovakia,400,800.0,Secondary,48.09,18.55
COV Vycapy Opatovce,Slovakia,0,0.0,Secondary,48.4,18.08
COV Jesenske,Slovakia,0,0.0,Secondary,48.3,20.07
COV Slovenska Lupca,Slovakia,0,0.0,Secondary,48.76,19.27
COV Tornala,Slovakia,0,0.0,Secondary,48.41,20.32
COV Spisske Podhradie,Slovakia,0,0.0,Secondary,49.0,20.75
COV Gelnica,Slovakia,0,0.0,Secondary,48.85,20.93
COV Dobsina,Slovakia,0,0.0,Secondary,48.82,20.36
COV Plesivec,Slovakia,0,0.0,Secondary,48.54,20.4
COV Spisske Vlachy,Slovakia,0,0.0,Secondary,48.94,20.79
COV Batorove Kosihy,Slovakia,0,0.0,Secondary,47.82,18.41
COV Velke Dvorany,Slovakia,0,0.0,Secondary,48.56,18.06
COV Bystrany,Slovakia,0,0.0,Secondary,48.94,20.75
COV Diviacka Nova Ves,Slovakia,0,0.0,Secondary,48.75,18.49
COV Divina,Slovakia,0,0.0,Secondary,49.27,18.69
COV Kostolany nad Hornadom,Slovakia,0,0.0,Secondary,48.79,21.24
COV Druzstevna pri Hornade,Slovakia,0,0.0,Secondary,48.79,21.24
COV Gbelce,Slovakia,0,0.0,Secondary,47.85,18.51
COV Cata,Slovakia,0,0.0,Secondary,47.97,18.65
COV Ivanovce,Slovakia,0,0.0,Secondary,48.84,17.92
COV Kalinovo,Slovakia,0,0.0,Secondary,48.39,19.71
COV Malcov,Slovakia,0,0.0,Secondary,49.3,21.04
COV Moravske Lieskove,Slovakia,0,0.0,Secondary,48.82,17.79
COV Nitrianske Pravno,Slovakia,0,0.0,Secondary,48.87,18.63
COV Nitrianske Rudno,Slovakia,0,0.0,Secondary,48.81,18.48
COV Liestany,Slovakia,0,0.0,Secondary,48.81,18.48
COV Pohronska Polhora,Slovakia,0,0.0,Secondary,48.75,19.79
COV Pruske,Slovakia,0,0.0,Secondary,49.02,18.21
COV Radzovce,Slovakia,0,0.0,Secondary,48.22,19.83
COV Selice,Slovakia,0,0.0,Secondary,48.09,17.97
COV Streda nad Bodrogom,Slovakia,0,0.0,Secondary,48.38,21.75
COV Svaty Peter,Slovakia,0,0.0,Secondary,47.84,18.26
COV Svodin,Slovakia,0,0.0,Secondary,47.91,18.5
COV Topolniky,Slovakia,0,0.0,Secondary,47.96,17.78
COV Banovce nad Ondavou,Slovakia,0,0.0,Secondary,48.69,21.81
COV Valaska Bela,Slovakia,0,0.0,Secondary,48.88,18.39
COV Ostratice,Slovakia,0,0.0,Secondary,48.68,18.15
COV Vitaz,Slovakia,0,0.0,Secondary,48.96,20.96
COV Ovcie,Slovakia,0,0.0,Secondary,48.96,20.96
COV Zemianska Olca,Slovakia,0,0.0,Secondary,47.8,17.85
COV Zlatna na Ostrove,Slovakia,0,0.0,Secondary,47.77,17.97
COV Siroke,Slovakia,0,0.0,Secondary,48.99,20.94
COV Strekov,Slovakia,0,0.0,Secondary,47.91,18.41
COV Dvorany nad Nitrou,Slovakia,0,0.0,Secondary,48.46,18.1
COV Predajna,Slovakia,0,0.0,Secondary,48.82,19.44
COV Leopoldov   nova,Slovakia,0,0.0,Secondary,48.45,17.76
COV Podbrezova   Lopej,Slovakia,0,0.0,Secondary,48.81,19.54
COV Hronec,Slovakia,0,0.0,Secondary,48.8,19.57
COV Dolna Zdana,Slovakia,0,0.0,Secondary,48.54,18.77
COV Saca   Velka Ida,Slovakia,0,0.0,Secondary,48.63,21.17
COV Martinske hole,Slovakia,0,0.0,Secondary,49.09,18.84
TP 7 of Alajarven kt,Finland,7000,0.0,Advanced,62.992,23.769
TP 10 of Alavuden kt,Finland,9900,0.0,Advanced,62.599,23.62
TP 141 of Ilmajoen kk,Finland,14000,0.0,Advanced,62.768,22.598
TP 155 of Jalasjarven kk,Finland,8500,0.0,Advanced,62.524,22.67
TP 222 of Kannuksen kt,Finland,14200,0.0,Advanced,63.909,23.887
TP 242 of Kauhajoen kt,Finland,38500,0.0,Advanced,62.463,22.224
TP 243 of Kauhavan kt,Finland,8800,0.0,Advanced,63.085,23.011
TP 332 of Kristiinankaupungin kt,Finland,7900,0.0,Advanced,62.265,21.322
TP 351 of Kurikan kt,Finland,7200,0.0,Advanced,62.63,22.413
TP 366 of Kalvian kirkons,Finland,3300,0.0,Advanced,63.878,23.45
TP 379 of Laihian kk,Finland,8700,0.0,Advanced,62.984,21.988
TP 401 of Lapuan kt,Finland,77300,0.0,Advanced,62.998,22.957
TP 566 of Narpion kt,Finland,4100,0.0,Advanced,62.458,21.351
TP 614 of Pietarsaaren kt,Finland,45000,0.0,Advanced,63.708,22.689
TP 761 of Seinajoen kt,Finland,110000,0.0,Advanced,62.8,22.819
TP 852 of Teuvan kk,Finland,3400,0.0,Advanced,62.475,21.723
TP 860 of Toholammin kk,Finland,14000,0.0,Advanced,63.778,24.245
TP 906 of Vaasan kt,Finland,81000,0.0,Advanced,63.111,21.583
TP 960 of Vimpelin kk,Finland,3800,0.0,Advanced,63.147,23.807
TP 970 of Vahakyron kk,Finland,7500,0.0,Advanced,63.062,22.093
TP 977 of Ylistaron kk,Finland,2200,0.0,Advanced,62.938,22.504
TP 995 of Ahtarin kt,Finland,6000,0.0,Advanced,62.548,24.035
TP 1000000022 of Kaustisen kk,Finland,5800,0.0,Advanced,63.565,23.68
TP 1900013324 of Alaharman kk,Finland,7200,0.0,Advanced,63.315,22.8
TP 1900019814 of Kokkolan kt,Finland,32000,0.0,Advanced,63.876,23.059
TP 187 of Juvan kk,Finland,5000,0.0,Advanced,61.916,27.87
TP 217 of Kangasniemen kk,Finland,3200,0.0,Advanced,61.98,26.665
TP 495 of Mikkelin kt,Finland,56000,0.0,Advanced,61.682,27.289
TP 529 of Mantyharjun asseutu,Finland,6200,0.0,Advanced,61.43,26.874
TP 608 of Pieksamaen kt,Finland,39000,0.0,Advanced,62.294,27.11
TP 710 of Ristiinan kk,Finland,4400,0.0,Advanced,61.489,27.27
TP 758 of Savonlinnan kt,Finland,26000,0.0,Advanced,61.837,28.875
TP 13 of Vaaksy,Finland,6600,0.0,Advanced,61.178,25.586
TP 49 of Forssan kt,Finland,92600,0.0,Advanced,60.824,23.612
TP 89 of Heinolan kt,Finland,27000,0.0,Advanced,61.189,26.054
TP 126 of Hameenlinnan kt,Finland,95000,0.0,Advanced,61.023,24.431
TP 156 of Turenki,Finland,33000,0.0,Advanced,60.926,24.623
TP 162 of Forssan kt,Finland,3600,0.0,Advanced,60.801,23.468
TP 368 of Karkolan kk,Finland,3700,0.0,Advanced,60.885,25.245
TP 375 of Lahden kt,Finland,90000,0.0,Advanced,60.956,25.626
TP 376 of Lahden kt,Finland,150000,0.0,Advanced,60.957,25.624
TP 382 of Lammin kk,Finland,4200,0.0,Advanced,61.088,24.997
TP 537 of Nastolan kk,Finland,24000,0.0,Advanced,60.925,25.919
TP 570 of Orimattilan kt,Finland,14500,0.0,Advanced,60.805,25.706
TP 709 of Riihimaen kt,Finland,84500,0.0,Advanced,60.722,24.775
TP 820 of Sysman kk,Finland,3100,0.0,Advanced,61.5,25.676
TP 208 of Kajaanin kt,Finland,28500,0.0,Advanced,64.241,27.671
TP 337 of Kuhmon kt,Finland,8200,0.0,Advanced,64.124,29.486
TP 798 of Vuokatti,Finland,11200,0.0,Advanced,64.151,28.317
TP 811 of Ammansaari,Finland,7100,0.0,Advanced,64.875,28.875
TP 152 of Imatran kt,Finland,30000,0.0,Advanced,61.155,28.784
TP 169 of Joutsenon kk,Finland,6600,0.0,Advanced,61.145,28.456
TP 328 of Kotkan kt,Finland,134000,0.0,Advanced,60.44,26.925
TP 331 of Kouvolan kt,Finland,80000,0.0,Advanced,60.835,26.716
TP 359 of Kouvolan kt,Finland,37000,0.0,Advanced,60.889,26.61
TP 393 of Lappeenrannan kt,Finland,120000,0.0,Advanced,61.041,28.189
TP 469 of Taavetti,Finland,3300,0.0,Advanced,60.907,27.564
TP 188 of Jyvaskylan kt,Finland,220000,0.0,Advanced,62.209,25.788
TP 199 of Jamsan kt,Finland,15200,0.0,Advanced,61.847,25.219
TP 234 of Karstulan kk,Finland,2300,0.0,Advanced,62.861,24.799
TP 259 of Keuruun kt,Finland,12000,0.0,Advanced,62.235,24.711
TP 317 of Korpilahden kk,Finland,3200,0.0,Advanced,62.015,25.593
TP 403 of Lievestuore,Finland,2400,0.0,Advanced,62.266,26.177
TP 741 of Saarijarven kt,Finland,5000,0.0,Advanced,62.685,25.259
TP 807 of Suolahden kt,Finland,9200,0.0,Advanced,62.561,25.834
TP 953 of Viitasaaren kt,Finland,5200,0.0,Advanced,63.089,25.876
TP 996 of Aanekosken kt,Finland,18400,0.0,Advanced,62.584,25.739
TP 1900011362 of Joutsan kk,Finland,3700,0.0,Advanced,61.748,26.084
TP 144 of Ivalo,Finland,11000,0.0,Advanced,68.692,27.649
TP 246 of Kemin kt,Finland,27500,0.0,Advanced,65.72,24.576
TP 249 of Kemin kt,Finland,7800,0.0,Advanced,65.785,24.52
TP 293 of Sirkka,Finland,16000,0.0,Advanced,67.731,24.959
TP 373 of Kemijarven kt,Finland,7900,0.0,Advanced,66.707,27.461
TP 590 of Pelkosenniemen kk,Finland,5000,0.0,Advanced,67.096,27.519
TP 695 of Ranuan kk,Finland,1800,0.0,Advanced,65.905,26.549
TP 714 of Rovaniemen kt,Finland,69000,0.0,Advanced,66.481,25.644
TP 749 of Sallan kk,Finland,4600,0.0,Advanced,66.84,28.659
TP 785 of Sodankylan kk,Finland,5100,0.0,Advanced,67.397,26.596
TP 982 of Ylitornion kk,Finland,4300,0.0,Advanced,66.307,23.656
TP 1300000055 of Akaslompolo,Finland,11500,0.0,Advanced,67.511,24.0
TP 125 of Kyroskoski,Finland,9400,0.0,Advanced,61.643,23.211
TP 139 of Ikaalisten kt,Finland,5700,0.0,Advanced,61.783,23.08
TP 416 of Tampereen kt,Finland,15000,0.0,Advanced,61.33,23.749
TP 547 of Tampereen kt,Finland,33600,0.0,Advanced,61.469,23.475
TP 548 of Siuro,Finland,3200,0.0,Advanced,61.468,23.349
TP 574 of Oriveden kt,Finland,7400,0.0,Advanced,61.664,24.391
TP 589 of Parkanon kt,Finland,5100,0.0,Advanced,62.002,23.033
TP 684 of Epaala,Finland,4000,0.0,Advanced,61.328,24.251
TP 731 of Ruoveden kk,Finland,4000,0.0,Advanced,61.982,24.096
TP 845 of Tampereen kt,Finland,75000,0.0,Advanced,61.491,23.654
TP 846 of Tampereen kt,Finland,285000,0.0,Advanced,61.49,23.764
TP 887 of Toijalan kt,Finland,20000,0.0,Advanced,61.181,23.86
TP 892 of Urjalan kk,Finland,2600,0.0,Advanced,61.077,23.614
TP 910 of Valkeakosken kt,Finland,35000,0.0,Advanced,61.25,24.013
TP 919 of Vammalan kt,Finland,25000,0.0,Advanced,61.33,22.89
TP 962 of Virtain kt,Finland,3500,0.0,Advanced,62.234,23.714
TP 994 of Aetsan kk,Finland,4500,0.0,Advanced,61.261,22.694
TP 1900019769 of Mantan kt,Finland,8300,0.0,Advanced,62.022,24.628
TP 142 of Ilomantsin kk,Finland,5000,0.0,Advanced,62.684,30.925
TP 161 of Joensuun kt,Finland,80000,0.0,Advanced,62.59,29.735
TP 179 of Juuan kk,Finland,6200,0.0,Advanced,63.238,29.278
TP 287 of Kiteen kt,Finland,5900,0.0,Advanced,62.103,30.145
TP 361 of Outokummun kt,Finland,15800,0.0,Advanced,62.713,29.05
TP 426 of Lieksan kt,Finland,11100,0.0,Advanced,63.31,30.028
TP 558 of Nurmeksen kt,Finland,9100,0.0,Advanced,63.535,29.154
TP 52 of Haapaveden kt,Finland,63000,0.0,Advanced,64.139,25.328
TP 214 of Kalajoen kk,Finland,7500,0.0,Advanced,64.266,23.928
TP 251 of Kempele,Finland,36000,0.0,Advanced,64.896,25.456
TP 356 of Kuusamon kt,Finland,16000,0.0,Advanced,65.956,29.177
TP 357 of Ruka skiing resort,Finland,6000,0.0,Advanced,66.17,29.117
TP 545 of Nivalan kt,Finland,7600,0.0,Advanced,63.917,24.918
TP 577 of Oulaisten kt,Finland,4400,0.0,Advanced,64.264,24.774
TP 578 of Oulu,Finland,202000,0.0,Advanced,65.047,25.387
TP 653 of Kurenalus,Finland,8200,0.0,Advanced,65.359,26.856
TP 654 of Syote skiing resort,Finland,1400,0.0,Advanced,65.572,27.415
TP 670 of Pyhasalmi,Finland,4600,0.0,Advanced,63.713,25.985
TP 688 of Raahen kt,Finland,18800,0.0,Advanced,64.71,24.451
TP 986 of Ylivieskan kt,Finland,11000,0.0,Advanced,64.096,24.527
TP 1900009451 of Pyhannan kk,Finland,16700,0.0,Advanced,64.505,25.719
TP 130 of Iisalmen kt,Finland,63000,0.0,Advanced,63.542,27.2
TP 177 of Juankosken kirkons,Finland,5000,0.0,Advanced,63.067,28.344
TP 297 of Kiuruveden kt,Finland,8000,0.0,Advanced,63.656,26.64
TP 343 of Kuopion kt,Finland,143000,0.0,Advanced,62.858,27.719
TP 386 of Lapinlahden kk,Finland,87000,0.0,Advanced,63.349,27.368
TP 543 of Nilsian kt,Finland,7000,0.0,Advanced,63.236,28.081
TP 611 of Pielaveden kk,Finland,3100,0.0,Advanced,63.229,26.687
TP 766 of Siilinjarven kk,Finland,19000,0.0,Advanced,63.055,27.777
TP 817 of Suonenjoen kt,Finland,26500,0.0,Advanced,62.635,27.11
TP 600000203 of Varkauden kt,Finland,45000,0.0,Advanced,62.277,27.929
TP 445 of Lohjan kt,Finland,6000,0.0,Advanced,60.185,23.936
TP 459 of Loviisan kt,Finland,15000,0.0,Advanced,60.389,26.279
TP 525 of Mantsalan kk,Finland,13600,0.0,Advanced,60.623,25.297
TP 561 of Nurmijarven kk,Finland,7000,0.0,Advanced,60.47,24.846
TP 562 of Rajamaki,Finland,37000,0.0,Advanced,60.385,24.77
TP 646 of Porvoon kt,Finland,45000,0.0,Advanced,60.279,25.556
TP 839 of Tammisaaren kt,Finland,13100,0.0,Advanced,59.966,23.458
TP 943 of Vihdin kk,Finland,3200,0.0,Advanced,60.414,24.3
TP 944 of Nummela,Finland,17800,0.0,Advanced,60.314,24.301
TP 100000122 of Inkoon kk,Finland,2000,0.0,Advanced,60.013,23.94
TP 1900013730 of Karjaan kt,Finland,10200,0.0,Advanced,60.092,23.557
TP 19 of Auran asseutu,Finland,2400,0.0,Advanced,60.644,22.594
TP 44 of Euran kk,Finland,40000,0.0,Advanced,61.128,22.139
TP 112 of Honkajoen kk,Finland,4300,0.0,Advanced,61.99,22.251
TP 113 of Lauttakyla,Finland,45000,0.0,Advanced,61.191,22.667
TP 218 of Kankaanpaan kt,Finland,15300,0.0,Advanced,61.806,22.387
TP 301 of Kokemaen kt,Finland,5800,0.0,Advanced,61.261,22.327
TP 454 of Loimaan kt,Finland,18600,0.0,Advanced,60.861,22.985
TP 579 of Paraisten kt,Finland,19000,0.0,Advanced,60.312,22.303
TP 598 of Pernion kk,Finland,1600,0.0,Advanced,60.199,23.123
TP 637 of Porin kt,Finland,230000,0.0,Advanced,61.517,21.767
TP 751 of Salon kt,Finland,49000,0.0,Advanced,60.374,23.101
TP 790 of Someron kt,Finland,7800,0.0,Advanced,60.627,23.512
TP 821 of Sakylan kk,Finland,13200,0.0,Advanced,61.063,22.319
TP 904 of Uudenkaupungin kt,Finland,31000,0.0,Advanced,60.804,21.383
TP 200000041 of Rauma,Finland,40000,0.0,Advanced,61.116,21.456
TP 1900015537 of Turun kt,Finland,420000,0.0,Advanced,60.444,22.218
TP 36 of Helsingin kt,Finland,330000,0.0,Advanced,60.089,24.762
TP 62 of Hangon kt,Finland,9900,0.0,Advanced,59.816,23.016
TP 101 of Helsingin kt,Finland,1110000,0.0,Advanced,60.088,24.912
TP 122 of Hyvinkaan kt,Finland,39000,0.0,Advanced,60.588,24.878
TP 231 of Karkkilan kt,Finland,7400,0.0,Advanced,60.518,24.227
TP 443 of Lohjan kt,Finland,29000,0.0,Advanced,60.252,24.049
TP 999999999001 of Maarianhaminan kt,Finland (Aland),22000,0.0,Advanced,60.084,19.925
TP of Tornion kt,Finland,0,0.0,Secondary,65.835,24.145
AFFOLTERN ZWILLIKON,Switzerland,16912,25000.0,Advanced,47.29,8.432
HAUSEN,Switzerland,1713,4500.0,Advanced,47.24,8.523
KNONAU,Switzerland,4613,7000.0,Advanced,47.222,8.456
OBFELDEN,Switzerland,5208,7000.0,Advanced,47.263,8.406
DACHSEN,Germany,2693,3500.0,Advanced,47.66,8.62
FLAACHTAL,Switzerland,1786,5000.0,Advanced,47.575,8.594
ANDELFINGEN,Switzerland,6942,6000.0,Advanced,47.605,8.671
MARTHALENWEINLAND,Switzerland,2789,5000.0,Advanced,47.621,8.64
OSSINGEN,Switzerland,2038,3000.0,Advanced,47.61,8.719
RHEINAU,Switzerland,1417,2000.0,Advanced,47.634,8.598
THALHEIMGUETIGHAUSEN,Switzerland,958,1600.0,Advanced,47.59,8.733
UNTERSTAMMHEIMSTAMMERTAL,Switzerland,1139,3500.0,Advanced,47.639,8.776
BASSERSDORF,Switzerland,17650,22500.0,Advanced,47.431,8.63
BUELACH,Switzerland,31441,37700.0,Advanced,47.518,8.528
EGLISAU,Switzerland,16295,11700.0,Advanced,47.579,8.509
GLATTFELDEN,Switzerland,2949,3500.0,Advanced,47.564,8.492
OPFIKON KLOTEN,Switzerland,56817,65000.0,Advanced,47.438,8.559
RORBAS,Switzerland,9308,20000.0,Advanced,47.536,8.575
BUCHSFURTHOF,Switzerland,10605,10000.0,Advanced,47.45,8.422
NIEDERGLATTFISCHB GL,Switzerland,46648,37750.0,Advanced,47.501,8.495
OTELFINGEN,Switzerland,6158,7700.0,Advanced,47.451,8.389
REGENSDORFWUEERI,Switzerland,24153,30000.0,Advanced,47.452,8.451
STADEL,Switzerland,1807,2200.0,Advanced,47.546,8.475
BUBIKONWOLFHAUSEN,Switzerland,3048,5000.0,Advanced,47.252,8.799
DUERNTENBUBIKON,Switzerland,5651,8400.0,Advanced,47.268,8.83
GOSSAU,Switzerland,8968,15000.0,Advanced,47.304,8.749
HINWIL,Switzerland,12165,21000.0,Advanced,47.309,8.811
RUETI,Switzerland,15672,16000.0,Advanced,47.251,8.852
WALD,Switzerland,8599,13300.0,Advanced,47.273,8.907
WETZIKON,Switzerland,31742,37000.0,Advanced,47.329,8.781
HIRZEL,Switzerland,4817,7100.0,Advanced,47.207,8.61
HORGEN,Switzerland,15523,36000.0,Advanced,47.267,8.589
RICHTERSWIL,Switzerland,10449,18000.0,Advanced,47.214,8.701
SCHOENENBERG,Switzerland,1956,4100.0,Advanced,47.206,8.65
THALWIL,Switzerland,24289,24000.0,Advanced,47.287,8.575
WAEDENSWIL,Switzerland,37371,44000.0,Advanced,47.24,8.658
HOMBRECHTIKONFELDBACH,Switzerland,7010,13500.0,Advanced,47.236,8.786
KUESNACHT,Switzerland,18227,30000.0,Advanced,47.31,8.586
MAENNEDORF,Switzerland,13825,18000.0,Advanced,47.257,8.682
MEILEN,Switzerland,37504,50000.0,Advanced,47.265,8.661
STAEFA_OETIKON,Switzerland,9825,10000.0,Advanced,47.239,8.723
STAEFA_UERIKON,Switzerland,4453,7000.0,Advanced,47.236,8.756
ZUMIKON,Switzerland,3990,6667.0,Secondary,47.33,8.616
BAUMA,Switzerland,3550,6000.0,Advanced,47.396,8.854
FEHRALTORF,Switzerland,10508,12000.0,Advanced,47.392,8.74
ILLNAU EFFRETIKONMANNENBERG,Switzerland,19837,22600.0,Advanced,47.439,8.703
PFAEFFIKON,Switzerland,7783,17000.0,Advanced,47.365,8.769
WEISSLINGEN,Switzerland,2355,3500.0,Advanced,47.436,8.765
DUEBENDORF,Switzerland,55542,55000.0,Advanced,47.406,8.598
EGG OETWIL,Switzerland,18890,17000.0,Advanced,47.293,8.718
FAELLANDENBACHWIS,Switzerland,50482,45000.0,Advanced,47.38,8.643
MAUR,Switzerland,6189,7200.0,Advanced,47.339,8.679
MOENCHALTORF,Switzerland,4513,4000.0,Advanced,47.314,8.716
USTER,Switzerland,47704,48000.0,Advanced,47.351,8.692
ALTIKON,Switzerland,828,1383.0,Secondary,47.587,8.782
ELGG,Switzerland,3550,4500.0,Advanced,47.5,8.853
ELLIKON ADTHUR,Switzerland,5191,7200.0,Advanced,47.569,8.827
ELSAU,Switzerland,3742,3500.0,Advanced,47.501,8.788
PFUNGEN,Switzerland,6808,12000.0,Advanced,47.52,8.628
SEUZACH,Switzerland,6875,10000.0,Advanced,47.534,8.703
WINTERTHUR,Switzerland,144204,180000.0,Advanced,47.516,8.667
BIRMENSDORF,Switzerland,16566,26750.0,Advanced,47.362,8.422
DIETIKONLIMMATTAL,Switzerland,90539,111667.0,Secondary,47.414,8.404
ZUERICHWERDHOELZLI,Switzerland,628936,670000.0,Advanced,47.401,8.482
ADLISWILSIHLTAL,Switzerland,30982,33000.0,Advanced,47.325,8.521
KALLNACH,Switzerland,1500,3600.0,Advanced,47.028,7.226
LYSS,Switzerland,48000,85000.0,Advanced,47.092,7.309
NIEDERRIED B_K,Switzerland,290,310.0,Secondary,47.014,7.253
ZALA AG,Switzerland,71000,65000.0,Advanced,47.249,7.771
MURG WYNAU,Switzerland,15000,43000.0,Advanced,47.264,7.825
ARA REGION BERN AG,Switzerland,320000,500000.0,Advanced,46.971,7.433
WOHLEN,Switzerland,13000,17500.0,Advanced,46.962,7.376
WORBLENTAL,Switzerland,100000,220000.0,Advanced,46.981,7.454
BURGDORF,Switzerland,38000,60000.0,Advanced,47.108,7.537
MOOSSEE URTENENBACH,Switzerland,39000,51750.0,Advanced,47.056,7.54
LA FERRIERE,Switzerland,230,375.0,Advanced,47.145,6.891
SONCEBOZBAS VALLON,Switzerland,5300,15400.0,Advanced,47.189,7.186
TRAMELAN,Switzerland,4300,7500.0,Advanced,47.225,7.127
VILLERETSTIMIER SESE,Switzerland,8200,8500.0,Advanced,47.161,7.024
ERLACH,Switzerland,3500,4000.0,Advanced,47.045,7.101
INS,Switzerland,9500,10000.0,Advanced,46.998,7.097
ADELBODEN,Switzerland,8500,13240.0,Advanced,46.5,7.576
FRUTIGEN KANDERSPITZ,Switzerland,5500,11250.0,Advanced,46.596,7.66
FRUTIGEN ELSIGBACH,Switzerland,107,250.0,Secondary,46.529,7.606
KANDERSTEG,Switzerland,2300,4000.0,Advanced,46.506,7.674
KIENTAL,Switzerland,599,1000.0,Secondary,46.59,7.719
BEATENBERG WANG,Switzerland,840,4750.0,Advanced,46.689,7.779
BRIENZ,Switzerland,5900,9500.0,Advanced,46.745,8.054
BRIENZWILER,Switzerland,800,1720.0,Advanced,46.747,8.098
DAERLIGEN,Switzerland,1350,1600.0,Advanced,46.664,7.805
GRINDELWALD,Switzerland,10000,20000.0,Advanced,46.631,8.0
ISELTWALD,Switzerland,450,900.0,Advanced,46.708,7.959
LAUTERBRUNNEN,Switzerland,6100,28000.0,Advanced,46.599,7.91
OBERRIED_EBLIGEN,Switzerland,121,283.0,Secondary,46.752,7.99
OBERRIED BI,Switzerland,482,1650.0,Advanced,46.734,7.958
INTERLAKEN,Switzerland,30000,68000.0,Advanced,46.676,7.844
BLEIKEN,Switzerland,240,475.0,Advanced,46.811,7.632
KIESENTAL OBERES KONOLFINGEN,Switzerland,10300,32000.0,Advanced,46.865,7.626
GROSSHOECHSTETTEN,Switzerland,7200,29500.0,Advanced,46.899,7.639
KIESENTAL UNTERES,Switzerland,8500,21250.0,Advanced,46.821,7.573
MUENSINGEN,Switzerland,24000,30000.0,Advanced,46.88,7.544
SENSETAL LAUPEN,Switzerland,61000,87500.0,Advanced,46.917,7.241
FORNET DESSOUS,Switzerland,500,420.0,Secondary,47.281,7.174
COURTSECOR,Switzerland,5900,13500.0,Advanced,47.243,7.348
TAVANNES SETE LOVERESSE,Switzerland,6200,11250.0,Advanced,47.237,7.243
ROCHESMOUTIER SEME,Switzerland,12300,23800.0,Advanced,47.305,7.386
BELLELAY,Switzerland,880,1500.0,Advanced,47.266,7.175
SORNETAN SOUBOZ,Switzerland,167,300.0,Secondary,47.275,7.23
LAMBOINGSELD,Switzerland,1100,1700.0,Advanced,47.111,7.139
PRELES,Switzerland,800,1000.0,Advanced,47.094,7.135
BIEL,Switzerland,75000,130000.0,Advanced,47.12,7.256
TWANN TLT,Switzerland,1900,6000.0,Advanced,47.092,7.153
ORPUND,Switzerland,10000,20400.0,Advanced,47.14,7.325
TAEUFFELEN ARAT,Switzerland,6500,13000.0,Advanced,47.057,7.193
GUTTANNEN RUEBGARTI,Switzerland,400,875.0,Secondary,46.668,8.27
INNERTKIRCHEN,Switzerland,1600,3000.0,Advanced,46.71,8.217
MEIRINGEN,Switzerland,10000,20000.0,Advanced,46.733,8.163
BOLTIGEN,Switzerland,1400,2500.0,Advanced,46.628,7.394
SIMMENTAL OBERES ZWEISIMMEN,Switzerland,7000,30000.0,Advanced,46.577,7.384
SAANEN,Switzerland,12000,35000.0,Advanced,46.486,7.231
SAANEN ABLAENDSCHEN,Switzerland,142,333.0,Secondary,46.573,7.293
GUGGISBERG SANGERENBODEN,Switzerland,150,350.0,Secondary,46.713,7.349
GUERBETAL KAUFDORF,Switzerland,15000,26500.0,Advanced,46.844,7.503
RUEGGISBERG_HINTERF,Switzerland,107,250.0,Secondary,46.84,7.399
LANGNAU IE,Switzerland,28000,27500.0,Advanced,46.947,7.759
SCHANGNAU BUMBACH,Switzerland,214,500.0,Secondary,46.814,7.884
ERIZ_INNERERIZ,Switzerland,264,617.0,Secondary,46.786,7.82
ERIZ LINDEN,Switzerland,271,633.0,Secondary,46.785,7.776
TEUFFENTAL,Switzerland,120,165.0,Secondary,46.775,7.722
THUNERSEE,Switzerland,130000,200000.0,Advanced,46.781,7.598
DUERRENROTH,Switzerland,2500,3700.0,Advanced,47.092,7.796
MITTLEMMENTAL,Switzerland,31000,50000.0,Advanced,47.024,7.647
WANGEN WIEDLISBACH,Switzerland,7860,11800.0,Advanced,47.236,7.674
HERZOGENBUCHSEE WANZWIL,Switzerland,15000,22500.0,Advanced,47.202,7.696
ARA Talschaft Entlebuch,Switzerland,9833,14000.0,Advanced,47.02,8.067
Klaranlage Sorenberg,Switzerland,2792,3000.0,Advanced,46.828,8.02
ARA Gemeindeverband Wolhusen Werthenstein Ruswil ,Switzerland,5067,9200.0,Advanced,47.053,8.091
ARA Buholz _ ARA REAL,Switzerland,179233,280000.0,Advanced,47.089,8.319
Klaranlage Hochdorf,Switzerland,12425,22000.0,Advanced,47.177,8.281
Klaranlage Oberseetal,Switzerland,4242,8000.0,Advanced,47.117,8.351
Klaranlage Hitzkirchertal _ Moosmatten,Switzerland,4333,13000.0,Advanced,47.245,8.234
Klaranlage Rontal,Switzerland,31375,24000.0,Advanced,47.118,8.389
Klaranlage Schwarzenberg Dorf,Switzerland,1157,1933.0,Secondary,47.011,8.177
Klaranlage Udligenswil,Switzerland,1458,3800.0,Advanced,47.083,8.399
Klaranlage Lutzelau,Switzerland,4992,8000.0,Advanced,47.025,8.462
Klaranlage Buttisholz,Switzerland,2842,5600.0,Advanced,47.114,8.074
Klaranlage Ruswil,Switzerland,3158,4600.0,Advanced,47.077,8.109
Klaranlage Sempach Neuenkirch,Switzerland,8408,12400.0,Advanced,47.123,8.188
Klaranlage Surental,Switzerland,42250,50000.0,Advanced,47.219,8.076
Klaranlage Oberes Wiggertal,Switzerland,47158,50000.0,Advanced,47.231,7.971
ALTDORF,Switzerland,34627,55500.0,Secondary,46.886,8.627
ANDERMATT,Switzerland,4772,11100.0,Secondary,46.642,8.591
BAUEN,Switzerland,264,617.0,Secondary,46.936,8.58
GOESCHENEN,Switzerland,231,1500.0,Secondary,46.668,8.591
ISENTHAL,Switzerland,162,650.0,Secondary,46.913,8.579
REALP,Switzerland,268,617.0,Secondary,46.598,8.505
SEELISBERG,Switzerland,1322,1867.0,Secondary,46.985,8.58
SISIKON,Switzerland,146,1917.0,Secondary,46.952,8.621
WASSEN,Switzerland,597,1417.0,Secondary,46.705,8.603
EINSIEDELN,Switzerland,22100,27500.0,Secondary,47.142,8.752
OBERES SIHLTAL,Switzerland,9041,11250.0,Secondary,47.08,8.814
GERSAU,Switzerland,8036,10000.0,Secondary,46.993,8.509
HOEFE,Switzerland,43598,40000.0,Secondary,47.206,8.765
INNERTHAL,Switzerland,100,233.0,Secondary,47.106,8.92
UNTERMARCH,Switzerland,30136,37500.0,Secondary,47.202,8.862
OBERMARCH,Switzerland,8036,10000.0,Secondary,47.18,8.962
VORDERTHAL,Switzerland,1037,1733.0,Secondary,47.138,8.896
MUOTATHAL,Switzerland,5237,8750.0,Secondary,46.989,8.7
ROTHENTHURM,Switzerland,808,1350.0,Secondary,47.112,8.67
SATTEL,Switzerland,2244,3750.0,Secondary,47.075,8.625
SCHWYZ,Switzerland,55703,55000.0,Secondary,47.013,8.621
ALPNACH SARNERAATAL,Switzerland,52500,29000.0,Advanced,46.941,8.287
ENGELBERG,Switzerland,7175,25000.0,Advanced,46.824,8.384
KERNS MELCHTAL,Switzerland,2892,3000.0,Advanced,46.838,8.291
BUOCHSAUMUEHLE,Switzerland,20300,21000.0,Advanced,46.978,8.414
HERGISWILLOPPER,Switzerland,7300,9000.0,Advanced,46.979,8.31
STANSROTZWINKEL,Switzerland,37333,25000.0,Advanced,46.969,8.344
Klaranlage Glarnerland,Switzerland,72917,70000.0,Advanced,47.165,9.013
CHAMSCHOENAU,Switzerland,176925,180000.0,Advanced,47.199,8.442
MENZINGENFINSTERSEE,Switzerland,221,517.0,Secondary,47.171,8.635
NEUHEIMTAL,Switzerland,1646,2750.0,Secondary,47.209,8.586
BUSSYAIPG,Switzerland,2773,4633.0,Secondary,46.836,6.897
DELLEY PORTALBANAIDE,Switzerland,3371,5633.0,Secondary,46.923,6.957
DOMIDIERAIDE,Switzerland,4339,7250.0,Secondary,46.876,7.012
ESTAVAYER LE LACERES,Switzerland,47658,88750.0,Advanced,46.841,6.825
MONTAGNY,Switzerland,2275,3375.0,Advanced,46.822,6.976
CHATONNAYE,Switzerland,798,1333.0,Secondary,46.755,6.932
ECUBLENSVOG,Switzerland,17278,21500.0,Secondary,46.613,6.815
ROMONTAIMPGPS,Switzerland,12054,15000.0,Secondary,46.703,6.934
TORNY,Switzerland,214,500.0,Secondary,46.773,6.978
BROCAICG,Switzerland,22100,27500.0,Secondary,46.61,7.092
CHARMEYAECE,Switzerland,8304,10333.0,Secondary,46.617,7.16
VUIPPENSAIS,Switzerland,39875,45512.0,Advanced,46.666,7.08
AUTIGNYAEGN,Switzerland,9188,11433.0,Secondary,46.733,7.034
CORPATAUX MAGNEDENS,Switzerland,848,1417.0,Secondary,46.736,7.102
CORSEREY,Switzerland,200,467.0,Secondary,46.775,6.993
FRIBOURGAELE,Switzerland,152700,188333.0,Secondary,46.814,7.163
GROLLEY,Switzerland,1746,2917.0,Secondary,46.835,7.063
LENTIGNY,Switzerland,678,1133.0,Secondary,46.759,6.998
MARLYAEGN,Switzerland,24109,30000.0,Secondary,46.78,7.128
POSIEUX,Switzerland,2324,3883.0,Secondary,46.769,7.118
VILLARS SUR GLANE,Switzerland,30136,37500.0,Secondary,46.784,7.114
PENSIERAESC,Switzerland,30136,37500.0,Secondary,46.845,7.141
KERZERS,Switzerland,12322,15333.0,Secondary,46.975,7.181
MISERY,Switzerland,639,1067.0,Secondary,46.857,7.056
MORAT,Switzerland,20091,25000.0,Secondary,46.942,7.137
VILLAREPOS,Switzerland,748,1250.0,Secondary,46.892,7.08
ZUMHOLZSENSE OBERLAND,Switzerland,11050,13750.0,Secondary,46.759,7.302
OENSINGENFALKENSTEIN,Switzerland,23000,38500.0,Advanced,47.292,7.742
GAENSBRUNNEN,Switzerland,65,375.0,Secondary,47.265,7.466
WELSCHENROHR,Switzerland,826,1750.0,Secondary,47.28,7.537
BIBERN,Switzerland,225,375.0,Secondary,47.149,7.465
LUESSLINGEN,Switzerland,628,1800.0,Secondary,47.195,7.502
MESSENLIMPACHTAL,Switzerland,5500,12000.0,Advanced,47.107,7.458
RODERSDORF,France,2500,2800.0,Advanced,47.488,7.458
SEEWEN,Switzerland,1030,1250.0,Secondary,47.429,7.633
KIENBERG,Switzerland,420,810.0,Secondary,47.445,7.962
WINZNAUZV OLTEN,Switzerland,70000,58000.0,Advanced,47.359,7.941
ZUCHWILSOLOTH EMME,Switzerland,94000,125000.0,Advanced,47.216,7.571
BELLACHBE LOMM LAN,Switzerland,6300,13750.0,Advanced,47.206,7.495
FELDBRUNNEN ST NIKLAUS,Switzerland,953,1625.0,Secondary,47.217,7.556
FLUMENTHALUNTLEBERBERG,Switzerland,4500,12500.0,Advanced,47.233,7.607
GRENCHENBUERENAMT,Switzerland,50000,67500.0,Advanced,47.176,7.414
RUETTENEN,Switzerland,993,3125.0,Advanced,47.226,7.533
SELZACH,Switzerland,2700,6900.0,Advanced,47.198,7.461
FULENBACHAAREGAEU,Switzerland,4500,7150.0,Advanced,47.277,7.842
GUNZGENGAEU,Switzerland,14600,20250.0,Advanced,47.325,7.833
SCHOENENWERD,Switzerland,55000,92500.0,Advanced,47.383,8.013
HIMMELRIED_OSTWALDECK,Switzerland,520,750.0,Secondary,47.421,7.586
HIMMELRIED_WESTSCHINDELBODEN,Switzerland,390,600.0,Secondary,47.423,7.571
KLEINLUETZEL,Switzerland,776,1950.0,Secondary,47.429,7.439
NUNNINGEN,Switzerland,2400,3125.0,Advanced,47.405,7.603
ZULLWILMELTINGEN,Switzerland,900,3950.0,Secondary,47.397,7.589
BASEL,Switzerland,368667,345000.0,Advanced,47.583,7.599
ARA Birs,Switzerland,97983,125000.0,Advanced,47.544,7.624
ARA Birsig,Switzerland,27242,31000.0,Advanced,47.505,7.557
ARA BURG,Switzerland,128,300.0,Secondary,47.459,7.444
ARA LIESBERG,Switzerland,1257,2100.0,Secondary,47.401,7.45
ARA ROGGENBURG,Switzerland,164,383.0,Secondary,47.439,7.34
ZWINGENLAUFENTAL L TAL,Switzerland,59796,73750.0,Secondary,47.44,7.543
ARA Frenke 3,Switzerland,18092,13000.0,Advanced,47.464,7.734
ARA Ergolz 2,Switzerland,51917,50000.0,Advanced,47.514,7.724
ARA HERSBERG,Switzerland,142,333.0,Secondary,47.49,7.78
ARA ANWIL,Switzerland,267,625.0,Advanced,47.448,7.936
ARA BUUS,Switzerland,410,960.0,Advanced,47.509,7.856
ARA HAEFELFINGEN,Switzerland,209,490.0,Advanced,47.416,7.861
ARA HEMMIKEN,Switzerland,135,317.0,Secondary,47.485,7.886
ARA KILCHBERG_ZEGLINGEN,Switzerland,402,940.0,Advanced,47.424,7.903
ARA MAISPRACH,Switzerland,402,940.0,Secondary,47.525,7.839
ARA NUSSHOF,Switzerland,135,317.0,Secondary,47.493,7.802
ARA OLTINGEN,Switzerland,267,625.0,Secondary,47.436,7.934
ARA RUENENBERG NORD,Switzerland,188,440.0,Advanced,47.438,7.883
ARA RUENENBERG SUED,Switzerland,135,317.0,Secondary,47.431,7.878
ARA Ergolz 1,Switzerland,34008,38000.0,Advanced,47.469,7.802
ARA WENSLINGEN,Switzerland,299,700.0,Advanced,47.439,7.905
ARA WINTERSINGEN,Switzerland,312,730.0,Secondary,47.505,7.825
ARA ARBOLDSWIL,Switzerland,256,600.0,Secondary,47.414,7.726
ARA BENNWIL,Switzerland,192,450.0,Secondary,47.41,7.789
ARA BRETZWIL,Switzerland,278,650.0,Advanced,47.408,7.657
ARA LAMPENBERG,Switzerland,256,600.0,Advanced,47.431,7.755
ARA LIEDERTSWIL,Switzerland,135,317.0,Secondary,47.393,7.725
ARA Frenke 2,Switzerland,7092,8000.0,Advanced,47.413,7.759
ARA TITTERTEN,Switzerland,171,400.0,Advanced,47.401,7.713
NEUHAUSEN A_RHFROETI,Switzerland,55432,68367.0,Secondary,47.676,8.62
RUEDLINGEN,Switzerland,977,1633.0,Secondary,47.577,8.573
BEGGINGEN,Switzerland,242,567.0,Secondary,47.765,8.523
SCHLEITHEIM,Switzerland,1426,2383.0,Secondary,47.745,8.457
RAMSENBIBERTAL HEGAU,Switzerland,107836,133000.0,Secondary,47.692,8.816
STEIN AM RHEIN,Switzerland,19086,23750.0,Secondary,47.666,8.845
HALLAUKLETTGAU,Switzerland,19689,24500.0,Secondary,47.689,8.455
HERISAUSAUM,Switzerland,135,317.0,Secondary,47.387,9.307
HERISAUSCHWAENBERG,Switzerland,107,250.0,Secondary,47.394,9.236
HUNDWILSCHMITTE,Switzerland,517,800.0,Secondary,47.367,9.322
HUNDWILBOEMMELI,Switzerland,93,217.0,Secondary,47.321,9.307
URNAESCHFURT,Switzerland,4408,3000.0,Secondary,47.327,9.294
WALDSTATTAUELI,Switzerland,2733,2250.0,Secondary,47.361,9.293
BUEHLERAU,Switzerland,8108,10000.0,Advanced,47.374,9.403
SPEICHERMUEHLELI,Switzerland,2050,12500.0,Advanced,47.418,9.448
TEUFENMoeHLTOBEL,Switzerland,7125,10833.0,Advanced,47.388,9.355
TROGENBRAENDLI,Switzerland,3783,4750.0,Advanced,47.413,9.461
REHETOBELWIESLI,Switzerland,1233,2500.0,Advanced,47.425,9.476
REHETOBELHABSET,Switzerland,107,250.0,Secondary,47.425,9.458
APPENZELLBOEDELI,Switzerland,12425,20000.0,Secondary,47.34,9.397
GONTEN_JAKOBSBAD,Switzerland,898,1500.0,Secondary,47.321,9.324
StGallen   Au,Switzerland,47450,47450.0,Advanced,47.416,9.331
StGallen   Hofen,Switzerland,61358,61358.0,Advanced,47.466,9.397
Steinach   Morgental,Switzerland,23359,29067.0,Secondary,47.502,9.428
Au   Rosenbergsau,Switzerland,59770,73717.0,Secondary,47.421,9.639
Thal   Altenrhein,Switzerland,90875,120000.0,Advanced,47.49,9.567
Altstatten,Switzerland,12750,19038.0,Advanced,47.368,9.564
Oberriet,Switzerland,12054,15000.0,Secondary,47.335,9.576
Ruthi,Switzerland,2544,4250.0,Secondary,47.301,9.551
Buchs,Switzerland,45852,45600.0,Advanced,47.177,9.483
Gams,Switzerland,3607,5383.0,Advanced,47.207,9.468
Sennwald,Switzerland,5567,7500.0,Advanced,47.261,9.517
Wartau,Switzerland,7467,10000.0,Advanced,47.096,9.505
Bad Ragaz,Switzerland,14064,17500.0,Secondary,47.018,9.505
Flums   Seez,Switzerland,23439,29167.0,Secondary,47.103,9.337
Mels   Weisstannen,Switzerland,377,883.0,Secondary,47.011,9.369
Pfafers   Vattis,Switzerland,748,1250.0,Secondary,46.912,9.449
Quarten Mittensee,Switzerland,4938,8250.0,Secondary,47.115,9.193
Sargans,Switzerland,22717,25000.0,Advanced,47.06,9.459
Walenstadt,Switzerland,4589,7667.0,Secondary,47.121,9.301
Benken,Switzerland,2693,4500.0,Secondary,47.199,8.991
Eschenbach,Switzerland,9549,11883.0,Secondary,47.234,8.928
Rapperswil Jona,Switzerland,27092,40000.0,Advanced,47.224,8.848
Schmerikon   Obersee,Switzerland,30136,37500.0,Secondary,47.218,8.964
Ebnat  Kappel,Switzerland,5087,8500.0,Secondary,47.275,9.108
Nesslau Rechenwaid,Switzerland,3591,6000.0,Secondary,47.226,9.19
Nesslau Churfirsten,Switzerland,9577,11917.0,Secondary,47.202,9.22
Wildhaus Alt StJohann Sagenboden,Switzerland,1866,3117.0,Secondary,47.198,9.378
Hemberg,Switzerland,678,1133.0,Secondary,47.3,9.185
Neckertal Tufi,Switzerland,1646,2750.0,Secondary,47.322,9.211
Wattwil,Switzerland,13467,20500.0,Advanced,47.316,9.082
Butschwil,Switzerland,3491,5833.0,Secondary,47.363,9.08
Kirchberg   Bazenheid,Switzerland,41175,50783.0,Secondary,47.415,9.076
Flawil   Oberglatt,Switzerland,19555,24333.0,Secondary,47.414,9.203
Ganterschwil,Switzerland,1805,2500.0,Secondary,47.381,9.082
Jonschwil,Switzerland,3741,6250.0,Secondary,47.448,9.066
Neckertal Rennen,Switzerland,2693,4500.0,Secondary,47.356,9.128
Uzwil,Switzerland,15269,19000.0,Secondary,47.452,9.144
Niederburen,Switzerland,8237,10250.0,Secondary,47.472,9.207
Wil,Switzerland,22636,28167.0,Secondary,47.45,9.058
Zuzwil,Switzerland,4718,7883.0,Secondary,47.463,9.112
Mutten,Switzerland,139,325.0,Secondary,46.678,9.506
Albula_Alvra Tiefencastel,Switzerland,1789,5000.0,Advanced,46.664,9.566
Vaz_Obervaz Faschas,Switzerland,574,1375.0,Advanced,46.689,9.531
Vaz_Obervaz Canius,Switzerland,9214,29833.0,Advanced,46.708,9.552
Albula_Alvra Alvaneu,Switzerland,1921,3750.0,Advanced,46.666,9.642
Albula_Alvra Surava,Switzerland,613,750.0,Secondary,46.662,9.605
Bergun_Bravuogn,Switzerland,874,3333.0,Secondary,46.631,9.741
Bivio,Switzerland,1087,2500.0,Secondary,46.483,9.643
Cunter Sot Got,Switzerland,6853,12500.0,Advanced,46.613,9.589
Sur,Switzerland,85,200.0,Secondary,46.528,9.621
Brusio Li Geri,Switzerland,870,2750.0,Secondary,46.237,10.136
Poschiavo Li Geri,Switzerland,7448,8625.0,Advanced,46.294,10.083
Ilanz_Glion Pitasch,Switzerland,144,338.0,Secondary,46.735,9.219
Schluein Gruob,Switzerland,20513,20400.0,Advanced,46.781,9.233
Safiental Valendas,Switzerland,187,438.0,Secondary,46.791,9.277
Safiental Versam,Switzerland,187,438.0,Secondary,46.793,9.34
Lumnezia Cumbel,Switzerland,1050,1250.0,Advanced,46.725,9.195
Lumnezia Degen,Switzerland,408,2000.0,Advanced,46.706,9.173
Lumnezia Lumbrein,Switzerland,80,188.0,Secondary,46.667,9.118
Lumnezia Suraua,Switzerland,286,670.0,Secondary,46.712,9.194
Vals Camp,Switzerland,3353,4375.0,Advanced,46.628,9.187
Lumnezia Vella,Switzerland,838,1875.0,Advanced,46.718,9.178
Lumnezia Cons,Switzerland,96,225.0,Secondary,46.651,9.094
Lumnezia Vrin,Switzerland,374,875.0,Secondary,46.656,9.103
Obersaxen Valata,Switzerland,3547,7117.0,Advanced,46.764,9.132
Ilanz_Glion Rueun,Switzerland,1464,3200.0,Advanced,46.775,9.144
Mundaun Flond,Switzerland,256,600.0,Secondary,46.768,9.167
Safiental Safien Platz,Switzerland,160,375.0,Secondary,46.683,9.318
Safiental Tenna,Switzerland,123,288.0,Secondary,46.749,9.343
Cazis Waldau,Switzerland,17372,27500.0,Advanced,46.743,9.432
Avers Cresta,Switzerland,97,228.0,Secondary,46.472,9.512
Nufenen,Switzerland,254,594.0,Secondary,46.538,9.246
Splugen,Switzerland,1589,2200.0,Advanced,46.555,9.332
Splugen Medels iRh,Switzerland,107,250.0,Secondary,46.544,9.294
Sufers,Switzerland,160,375.0,Secondary,46.568,9.365
Zillis Reischen Val Schons,Switzerland,3951,5000.0,Advanced,46.645,9.446
Domat_Ems Tuma Lunga,Switzerland,33510,60000.0,Advanced,46.833,9.433
Flims,Switzerland,8343,19967.0,Advanced,46.833,9.302
Trin Dbbi,Switzerland,2006,2000.0,Secondary,46.825,9.363
Scuol Ardez,Switzerland,565,1250.0,Secondary,46.771,10.195
Scuol Guarda,Switzerland,620,875.0,Secondary,46.768,10.143
Zernez Lavin,Switzerland,433,750.0,Advanced,46.769,10.115
Zernez Susch,Switzerland,303,938.0,Secondary,46.755,10.084
Zernez,Switzerland,3531,3750.0,Secondary,46.705,10.093
Valsot Ramosch,Switzerland,754,1063.0,Secondary,46.829,10.38
Samnaun,Switzerland,7663,13750.0,Secondary,46.962,10.415
Valsot Martina,Switzerland,968,1000.0,Secondary,46.889,10.469
Scuol Ftan,Switzerland,1632,4133.0,Secondary,46.787,10.241
Scuol Sot Ruinas,Switzerland,7868,17500.0,Advanced,46.799,10.317
Scuol Sur En,Switzerland,176,413.0,Secondary,46.819,10.366
Celerina_Schlarigna Staz,Switzerland,37151,83333.0,Advanced,46.548,9.9
Samedan Sax,Switzerland,19891,19890.0,Advanced,46.548,9.9
S chanf Furnatsch,Switzerland,3829,12533.0,Advanced,46.618,10.004
Sils iE_Segl Fex,Switzerland,320,750.0,Advanced,46.419,9.761
Silvaplana,Switzerland,8733,20000.0,Advanced,46.462,9.803
Bregaglia Maloja,Switzerland,929,3750.0,Advanced,46.407,9.704
Bregaglia Stampa,Switzerland,175,875.0,Secondary,46.34,9.578
Bregaglia Vicosoprano,Switzerland,711,1188.0,Secondary,46.35,9.611
Calanca Arvigo,Switzerland,171,400.0,Secondary,46.289,9.118
Castaneda,Switzerland,374,875.0,Secondary,46.257,9.146
Rossa,Switzerland,160,375.0,Secondary,46.349,9.122
Lostallo,Switzerland,2888,4375.0,Advanced,46.295,9.182
Mesocco San Bernardino,Switzerland,927,3200.0,Advanced,46.457,9.193
Davos Gadenstatt,Switzerland,29384,44000.0,Advanced,46.756,9.787
Davos Glaris,Switzerland,649,1563.0,Advanced,46.74,9.777
Davos Monstein,Switzerland,496,625.0,Advanced,46.718,9.761
Davos Wiesen,Switzerland,1011,1750.0,Advanced,46.697,9.719
Klosters Serneus Gulfia,Switzerland,7421,21333.0,Advanced,46.883,9.868
Klosters Serneus Serneus,Switzerland,626,2750.0,Advanced,46.895,9.837
Luzein Dalvazza,Switzerland,3472,7250.0,Advanced,46.916,9.759
Chur,Switzerland,79869,133333.0,Advanced,46.872,9.529
Arosa,Switzerland,9813,32500.0,Advanced,46.778,9.69
Arosa Langwies,Switzerland,362,1250.0,Advanced,46.82,9.704
Arosa Luen,Switzerland,187,438.0,Secondary,46.832,9.605
Arosa Molinis,Switzerland,447,2000.0,Advanced,46.826,9.653
Landquart,Switzerland,19088,35000.0,Advanced,46.968,9.551
Seewis iP Vorderes Prattigau,Switzerland,11926,21250.0,Advanced,46.974,9.631
Breil_Brigels Sorts,Switzerland,4658,7250.0,Advanced,46.757,9.079
Disentis_Muster Disla,Switzerland,214,500.0,Secondary,46.71,8.879
Disentis_Muster Raveras,Switzerland,4063,10000.0,Advanced,46.704,8.859
Medel_Lucmagn Curaglia,Switzerland,352,1063.0,Advanced,46.67,8.853
Tujetsch,Switzerland,3982,8350.0,Advanced,46.675,8.764
Trun Zavragia,Switzerland,4261,6500.0,Advanced,46.745,9.009
AARAU,Switzerland,103475,162500.0,Advanced,47.404,8.065
FISLISBACH,Switzerland,9804,12200.0,Advanced,47.441,8.26
KILLWANGEN,Switzerland,18633,37500.0,Advanced,47.434,8.355
MELLINGEN,Switzerland,21375,28750.0,Secondary,47.423,8.264
STETTEN,Switzerland,3638,6250.0,Advanced,47.397,8.3
BADEN,Switzerland,28931,36000.0,Secondary,47.487,8.269
OBERES SURBTAL,Switzerland,12054,15000.0,Advanced,47.508,8.34
UNTERSIGGENTHAL,Switzerland,12563,15633.0,Secondary,47.499,8.244
WUERENLINGEN,Switzerland,8975,6083.0,Secondary,47.523,8.236
BREMGARTEN,Switzerland,31583,31250.0,Advanced,47.356,8.345
RUDOLFSTETTEN,Switzerland,3800,5633.0,Advanced,47.375,8.39
KELLERAMT,Switzerland,7189,4500.0,Secondary,47.318,8.376
WOHLEN,Switzerland,32950,62500.0,Secondary,47.369,8.253
SCHINZNACH BAD,Switzerland,2700,4150.0,Secondary,47.464,8.166
UMIKEN,Switzerland,1775,3117.0,Secondary,47.479,8.189
SCHMITTENBACH,Switzerland,8875,13750.0,Secondary,47.527,8.225
VILLNACHERN,Switzerland,1113,3500.0,Secondary,47.47,8.169
BRUGG,Switzerland,31038,30000.0,Secondary,47.489,8.233
GONTENSCHWIL,Switzerland,3263,5750.0,Advanced,47.287,8.141
REINACH,Switzerland,40775,45000.0,Advanced,47.262,8.171
SCHOEFTLAND,Switzerland,11125,7467.0,Advanced,47.316,8.048
MITTLERES WYNENTAL,Switzerland,7800,10133.0,Advanced,47.334,8.112
HORNUSSEN,Switzerland,2858,3133.0,Advanced,47.503,8.052
KAISTEN,Switzerland,19383,16000.0,Advanced,47.551,8.033
FALKENMATT,Switzerland,4987,8333.0,Advanced,47.391,8.219
LENZBURG,Switzerland,62817,83333.0,Advanced,47.418,8.164
LOTTEN,Switzerland,14825,14000.0,Secondary,47.412,8.146
HALLWILERSEE,Switzerland,10100,11900.0,Advanced,47.327,8.188
CHLOSTERMATTE,Switzerland,4489,7500.0,Advanced,47.316,8.316
REUSS SCHACHEN,Switzerland,5311,10833.0,Advanced,47.268,8.4
MUEHLAU,Switzerland,2900,1400.0,Secondary,47.231,8.396
MURI,Switzerland,10975,11667.0,Secondary,47.282,8.341
OBERRUETI,Switzerland,977,1633.0,Advanced,47.172,8.404
SINS,Switzerland,5944,11317.0,Advanced,47.199,8.401
MOEHLIN,Switzerland,20091,25000.0,Secondary,47.577,7.839
RHEINFELDEN,Switzerland,31125,50000.0,Secondary,47.551,7.772
AARBURG,Switzerland,43192,57500.0,Secondary,47.313,7.898
ATTELWIL,Switzerland,2825,5000.0,Secondary,47.265,8.05
KOELLIKEN,Switzerland,18125,8133.0,Advanced,47.348,8.029
ZOFINGEN,Switzerland,87008,200000.0,Secondary,47.303,7.923
KLEINDOETTIGEN,Switzerland,8036,10000.0,Secondary,47.575,8.246
FULL REUENTHAL,Switzerland,538,1500.0,Secondary,47.618,8.2
LEIBSTADT,Switzerland,2623,4383.0,Secondary,47.593,8.161
LEUGGERN,Switzerland,2993,5000.0,Secondary,47.592,8.222
SURBTAL,Switzerland,9956,4000.0,Secondary,47.544,8.289
ZURZACH,Switzerland,16725,13833.0,Secondary,47.598,8.294
HEFENHOFENAACHTALMOOS,Switzerland,27042,35000.0,Advanced,47.551,9.322
KESSWIL,Switzerland,7058,7000.0,Advanced,47.599,9.311
ROMANSHORN,Switzerland,24300,24000.0,Advanced,47.557,9.374
BISCHOFSZELL,Switzerland,85133,150000.0,Advanced,47.497,9.234
HALDEN,Switzerland,912,1000.0,Secondary,47.507,9.207
UNTERSCHLATT_SCHLATT,Switzerland,1307,2183.0,Secondary,47.684,8.681
WILLISDORFDIESSENHOFEN,Switzerland,6967,7000.0,Secondary,47.691,8.727
AADORFLUETZELMURGTAL,Switzerland,15967,18000.0,Advanced,47.5,8.895
FRAUENFELD,Switzerland,68142,100000.0,Advanced,47.573,8.893
MATZINGENLAUCHETAL MURGTAL,Switzerland,35583,50000.0,Advanced,47.529,8.918
UESSLINGEN,Switzerland,1175,1250.0,Secondary,47.58,8.825
LIPPOLDSWILENKEMMENTAL,Switzerland,4875,5500.0,Advanced,47.606,9.113
MUENSTERLINGEN,Switzerland,14633,14000.0,Advanced,47.638,9.219
TAEGERWILENGOTTLIEBEN,Switzerland,5292,7000.0,Advanced,47.658,9.146
MUENCHWILENOBMURGTAL,Switzerland,17667,32000.0,Advanced,47.49,8.995
BERLINGENUNTERSEE,Switzerland,5400,6100.0,Advanced,47.673,9.041
MUELLHEIM,Switzerland,6783,6900.0,Secondary,47.593,8.988
PFYN,Switzerland,5225,5500.0,Secondary,47.591,8.948
STECKBORN,Switzerland,3900,5100.0,Advanced,47.662,8.972
MAERSTETTEN,Switzerland,3925,6200.0,Secondary,47.591,9.053
WEINFELDENMITTELTHURGAU,Switzerland,44100,60000.0,Advanced,47.565,9.085
GIUBIASCO BELLINZONA,Switzerland,81080,100000.0,Secondary,46.174,8.992
ISONE,Switzerland,748,1250.0,Secondary,46.127,8.986
MEDEGLIA MONTECENERI,Switzerland,150,350.0,Secondary,46.115,8.96
OLIVONE BLENIO,Switzerland,898,1500.0,Secondary,46.524,8.94
AIROLO,Switzerland,2574,4300.0,Secondary,46.526,8.623
CARI  FAIDO,Switzerland,898,1500.0,Secondary,46.492,8.823
VARENZO QUINTO,Switzerland,1736,2900.0,Secondary,46.503,8.719
LOCARNO FOCE TICINO,Switzerland,38654,48100.0,Secondary,46.168,8.872
LOCARNO FOCE MAGGIA,Switzerland,54729,67500.0,Secondary,46.159,8.794
LOCO ONSERNONE,Switzerland,214,500.0,Secondary,46.201,8.672
BARBENGO PIAN SCAIROLO,Switzerland,16073,20000.0,Secondary,45.954,8.914
BIOGGIO LUGANO,Switzerland,129728,160000.0,Secondary,46.009,8.917
CADRO MEDIO CASSARATE,Switzerland,9644,12000.0,Secondary,46.041,8.975
CROGLIO MAGLIASINA,Switzerland,12054,15000.0,Secondary,45.984,8.842
MORCOTE,Switzerland,1197,2000.0,Secondary,45.924,8.91
RANCATE MENDRISIO,Switzerland,36163,45000.0,Secondary,45.888,8.975
VACALLO CHIASSO,Italy,24109,30000.0,Secondary,45.841,9.035
BIASCA,Switzerland,19287,24000.0,Secondary,46.331,8.98
AIGLE,Switzerland,21851,25000.0,Advanced,46.315,6.943
BEX,Switzerland,5784,9625.0,Advanced,46.244,6.996
GRYON,Switzerland,3741,6250.0,Advanced,46.271,7.069
LAVEY MORCLES,Switzerland,5345,10000.0,Advanced,46.217,7.01
DAILLY,Switzerland,299,700.0,Secondary,46.207,7.029
LEYSIN,Switzerland,4000,12500.0,Advanced,46.337,7.013
OLLON,Switzerland,6440,13750.0,Advanced,46.291,6.982
ORMONT DESSOUS_LE SEPEY,Switzerland,1796,3000.0,Advanced,46.358,7.05
ORMONT DESSOUS_LA FORCLAZ,Switzerland,748,1250.0,Advanced,46.351,7.07
ORMONT DESSUS_LES DIABLERETS,Switzerland,1568,7500.0,Advanced,46.354,7.146
ROCHESIGE,Switzerland,663,750.0,Advanced,46.382,6.923
YVORNE,Switzerland,7225,15533.0,Advanced,46.368,6.925
APPLES,Switzerland,898,1500.0,Advanced,46.561,6.439
AUBONNE,Switzerland,4883,4750.0,Advanced,46.483,6.403
BALLENSVEYRON,Switzerland,1047,1750.0,Advanced,46.558,6.365
BIERE,Switzerland,3522,6125.0,Advanced,46.532,6.35
GIMEL,Switzerland,1496,2500.0,Advanced,46.509,6.32
ST GEORGE,Switzerland,643,1075.0,Advanced,46.511,6.273
SAUBRAZ,Switzerland,185,433.0,Secondary,46.513,6.331
AVENCHES,Switzerland,5074,6260.0,Advanced,46.895,7.045
BELLERIVEAPEV,Switzerland,2993,5000.0,Advanced,46.92,7.031
CHABREY,Switzerland,142,333.0,Secondary,46.929,6.979
CUDREFIN,Switzerland,1267,1775.0,Advanced,46.958,7.018
BETTENS,Switzerland,214,500.0,Advanced,46.625,6.566
BOUSSENS,Switzerland,320,750.0,Advanced,46.593,6.585
LA CHAUX,Switzerland,267,625.0,Advanced,46.624,6.477
CHEVILLY,Switzerland,157,367.0,Secondary,46.639,6.482
CUARNENS,Switzerland,267,625.0,Advanced,46.628,6.443
DIZY,Switzerland,171,400.0,Secondary,46.634,6.49
ECLEPENS,Switzerland,1213,1975.0,Advanced,46.65,6.547
L ISLE,Switzerland,726,1213.0,Advanced,46.621,6.418
LUSSERY VILLARS,Switzerland,267,625.0,Advanced,46.63,6.533
MOIRY,Switzerland,310,725.0,Advanced,46.646,6.454
MONT LA VILLE,Switzerland,599,1000.0,Advanced,46.639,6.409
MONTRICHER,Switzerland,849,1419.0,Advanced,46.592,6.384
ORNY,Switzerland,256,600.0,Advanced,46.671,6.531
PENTHAZAIE,Switzerland,7650,10625.0,Advanced,46.598,6.53
SULLENS,Switzerland,1122,1875.0,Advanced,46.593,6.551
LA SARRAZ,Switzerland,3083,5000.0,Advanced,46.652,6.512
SENARCLENSSIEGS,Switzerland,599,1000.0,Advanced,46.591,6.48
SEVERY PAMPIGNY,Switzerland,1160,1938.0,Advanced,46.574,6.442
BIOLEY ORJULAZMORTIGUE,Switzerland,2566,3500.0,Advanced,46.615,6.605
BOTTENS,Switzerland,374,875.0,Advanced,46.618,6.652
BRETIGNY SUR MORRENS,Switzerland,3818,6500.0,Advanced,46.595,6.635
CUGY,Switzerland,1496,2500.0,Advanced,46.582,6.632
ECHALLENS,Switzerland,7473,9500.0,Advanced,46.646,6.621
ECLAGNENSSIEGEO,Switzerland,1122,1875.0,Advanced,46.652,6.587
ESSERTINES_RU DES BAS,Switzerland,320,750.0,Advanced,46.718,6.639
ESSERTINES_EPAUTHEYRES,Switzerland,121,283.0,Secondary,46.742,6.641
FEY,Switzerland,178,417.0,Secondary,46.682,6.683
MORRENSTALENT,Switzerland,267,625.0,Advanced,46.598,6.627
MORRENSMEBRE,Switzerland,294,688.0,Advanced,46.581,6.623
POLIEZ PITTET,Switzerland,374,875.0,Advanced,46.634,6.681
SUGNENS,Switzerland,185,433.0,Secondary,46.66,6.668
VILLARS TIERCELIN,Switzerland,241,563.0,Advanced,46.631,6.701
VUARRENSBAS DE LA VAUX,Switzerland,385,900.0,Advanced,46.689,6.636
BONVILLARS,Switzerland,401,938.0,Advanced,46.83,6.671
CHAMPAGNE,Switzerland,385,900.0,Advanced,46.825,6.664
CORCELLES PRES CONCISE,Switzerland,1496,2500.0,Advanced,46.847,6.715
FIEZ,Switzerland,455,1000.0,Advanced,46.823,6.625
GRANDSON,Switzerland,6139,6875.0,Advanced,46.8,6.631
MUTRUX,Switzerland,121,283.0,Secondary,46.885,6.729
ONNENS,Switzerland,599,1000.0,Advanced,46.832,6.689
PROVENCE,Switzerland,241,563.0,Advanced,46.889,6.73
STE CROIX,Switzerland,4642,12088.0,Advanced,46.82,6.475
STE CROIX_AUBERSON,Switzerland,898,1500.0,Advanced,46.818,6.525
LAUSANNE,Switzerland,176928,412500.0,Advanced,46.521,6.591
PULLY,Switzerland,13622,40000.0,Advanced,46.506,6.669
CULLYSIEL,Switzerland,5619,6250.0,Advanced,46.491,6.737
FOREL_CHERCOTTAZ,Switzerland,160,375.0,Advanced,46.522,6.735
FOREL_PIGEON,Switzerland,898,1500.0,Advanced,46.526,6.772
LUTRY,Switzerland,8036,15000.0,Advanced,46.498,6.7
SAVIGNY_PRA CHARBON,Switzerland,3654,4600.0,Advanced,46.539,6.74
BREMBLENSAIEV,Switzerland,5793,6000.0,Advanced,46.56,6.528
BUSSIGNY PRES LAUSANNE,Switzerland,7656,21250.0,Advanced,46.542,6.552
COLOMBIER,Switzerland,1122,1875.0,Advanced,46.556,6.478
LULLY LUSSY,Switzerland,1408,1125.0,Advanced,46.499,6.468
MORGES,Switzerland,39239,56250.0,Advanced,46.517,6.511
REVEROLLE,Switzerland,310,725.0,Advanced,46.539,6.449
ST PREX,Switzerland,11276,12688.0,Advanced,46.475,6.449
VILLARS SOUS YENS,Switzerland,320,750.0,Advanced,46.505,6.43
VULLIERENS,Switzerland,337,788.0,Advanced,46.57,6.492
BOULENS,Switzerland,374,875.0,Advanced,46.684,6.723
DENEZY,Switzerland,107,250.0,Secondary,46.722,6.792
HERMENCHES,Switzerland,114,267.0,Secondary,46.643,6.764
LUCENSAIML,Switzerland,23911,42000.0,Advanced,46.714,6.849
OGENS,Switzerland,164,383.0,Secondary,46.717,6.724
PEYRES POSSENS,Switzerland,577,750.0,Advanced,46.658,6.701
SAINT CIERGES,Switzerland,374,875.0,Advanced,46.687,6.732
SOTTENS,Switzerland,685,1144.0,Advanced,46.652,6.739
THIERRENS,Switzerland,636,1063.0,Advanced,46.707,6.752
GINGINS CHESEREX,Switzerland,973,1625.0,Advanced,46.404,6.188
GLANDAPEC,Switzerland,31218,35000.0,Advanced,46.426,6.295
NYON,Switzerland,33211,50000.0,Advanced,46.403,6.215
PRANGINS,Switzerland,2155,3600.0,Advanced,46.392,6.257
AGIEZ,Switzerland,214,500.0,Advanced,46.723,6.514
ARNEX SUR ORBE,Switzerland,401,938.0,Advanced,46.688,6.524
BALLAIGUES,Switzerland,1122,1875.0,Advanced,46.724,6.418
BAULMES,Switzerland,2192,3663.0,Advanced,46.792,6.534
CHAVORNAY,Switzerland,2993,5000.0,Advanced,46.72,6.559
CROYAIVN,Switzerland,1421,2375.0,Advanced,46.688,6.479
ORBE,Switzerland,15915,37500.0,Advanced,46.735,6.546
VALLORBE,Switzerland,2682,7500.0,Advanced,46.714,6.385
